facility_id,facility_name,facility_type,capacity_numeric,capacity_unit,region,licence_issue_date,inspection_date,latitude,longitude,remarks,date_anomaly
,st. Ward-Clark,Polyclinic,489.0,beds,St. Andrew,2022-09-07,2023-06-19,13.150555555555556,-59.18555555555555,Needs upgrade,False
9981.0,"Cooper, Fowler and Williams Hosp.",Health Centre,26.0,cots,St. John,2025-06-20,2020-10-04,13.23953,-59.07019,Needs upgrade,True
9981.0,"Cooper, Fowler and Williams Hospital",Health Centre,26.0,cots,St. John,2025-06-20,2020-10-04,13.23953,-59.07019,Needs upgrade,True
84.0,"st. Ellis, Hall and Mahoney Health Centre",Community Health Centre,123.0,patients,St. Lucy,2023-05-16,2023-10-07,13.17492,-58.78072,Follow-up 2023,False
4144.0,"st. Allen,-Miller-and-Hernandez Hospital",Health Centre,401.0,beds,St. Lucy,2024-12-12,2022-02-19,13.26365,-59.05108,,True
28.0,Johnson Group Clin.,Health Centre,10.0,beds,St. Michael,2023-07-25,2021-06-25,13.12849,-59.24123,,True
28.0,Johnson Group Clinic,Health Centre,10.0,beds,St. Michael,2023-07-25,2021-06-25,13.12849,-59.24123,,True
9961.0,Ellison PLC Health Centre,Health Centre,10.0,beds,St. Andrew,2018-01-14,2018-11-18,13.02857,-59.21918,Good,False
45810.0,"Patterson, Brown and Lamb Infirmary",Hospital,296.0,capacity,St. Andrew,2019-09-23,2024-12-19,13.10359,-59.08052,,False
15171.0,Winters and Sons Medical Center,Clinic,175.0,beds,St. Lucy,2024-04-24,2018-12-13,13.29339,-59.14165,,True
,"Marquez, Sims and Morris",Health Centre,431.0,beds,Christ Church,2021-02-22,2024-05-19,12.80296,-59.16671,Needs upgrade,False
349.0,"Brady,-Beard-and-Pearson",Health Centre,276.0,cots,St. John,2018-04-29,2019-12-28,13.087777777777779,-58.98027777777778,Follow-up 2023,False
9954.0,Torres-Bowman Clinic,Hospital,53.0,capacity,St. George,2016-07-28,2018-10-07,12.777500000000002,-59.04861111111111,,False
9949.0,Webster Inc Polyclinic,Health Centre,33.0,beds,St. Lucy,2018-01-09,2019-10-14,13.17437,-58.81873,Needs upgrade,False
9948.0,"Wilson,-Armstrong-and-Nicholson Clinic",Health Centre,198.0,units,St. James,2017-11-19,2023-06-18,13.17336,-58.74294,Reinspection due,False
9947.0,Harvey-Bradley Hospital,Health Centre,40.0,patients,St. Andrew,2019-01-10,2020-07-31,13.120277777777778,-59.12166666666667,,False
9946.0,St. Hill PLC Clin.,Health Centre,99.0,beds,St. Peter,2018-05-24,2023-08-29,12.78262,-58.8833,,False
9946.0,St. Hill PLC Clinic,Health Centre,99.0,beds,St. Peter,2018-05-24,2023-08-29,12.78262,-58.8833,,False
6770.0,"Richardson,-Spencer-and-Johns Hosp.",Clinic,56.0,beds,Christ Church,2020-12-17,2021-10-08,12.74772,-59.04428,Follow-up 2023,False
40.0,St. Taylor-Turner Health Centre,Health Centre,424.0,patients,St. George,2017-11-18,2021-02-09,13.24369,-58.77812,Needs upgrade,False
38.0,Chapman PLC Christ,Health Centre,375.0,beds,Christ Church,2025-02-11,2018-01-05,12.70734,-59.15735,Good,True
37.0,St. Jones Group Hosp.,Clinic,75.0,units,St. George,2020-12-30,2022-11-03,13.29409,-58.72088,Good,False
35.0,Johnson Ltd Hosp. St. John,Health Centre,295.0,units,St. John,2017-01-20,2024-07-29,12.975833333333334,-58.94222222222222,,False
,"Young, Dickerson and Wells",Health Centre,416.0,patients,St. Peter,2022-04-03,2023-11-02,12.993,-59.23137,Good,False
30.0,Owens Ltd St. James,Hospital,495.0,capacity,St. James,2022-03-08,2025-02-28,13.14441,-58.80217,Follow-up 2023,False
9944.0,"Smith, Lopez and Turner Medical Center",Health Centre,375.0,capacity,St. John,2020-03-08,2023-03-25,13.224444444444444,-59.03388888888889,Reinspection due,False
,"Murray, Winters and Lewis NewLine",Polyclinic,190.0,capacity,St. Joseph,2024-12-08,2024-10-20,13.2825,-58.82805555555556,,True
9936.0,"Chandler,-Wilson-and-Perez",Community Health Centre,175.0,beds,St. Lucy,2016-07-31,2019-10-04,13.102777777777778,-58.80361111111111,Follow-up 2023,False
,"St. Barnes, Richardson and Leonard Hosp.",Hospital,242.0,units,St. Joseph,2024-11-19,2021-09-21,12.85921,-59.11794,Follow-up 2023,True
,Conner-Floyd Hospital,Clinic,10.0,beds,St. Lucy,2020-12-01,2020-02-27,12.923055555555555,-59.10416666666667,Follow-up 2023,True
9923.0,"St. Randall, Chandler and Knight",Health Centre,222.0,beds,St. Lucy,2020-04-04,2019-10-18,12.938055555555556,-59.051944444444445,Good,True
97883.0,Roman-Green,Polyclinic,407.0,beds,Christ Church,2016-10-21,2020-10-04,12.93171,-58.74168,Reinspection due,False
53.0,Turner-and-Sons,Polyclinic,226.0,beds,St. James,2023-03-28,2025-07-30,13.254722222222222,-58.861111111111114,Good,False
695.0,Day-Payne,Health Centre,497.0,patients,St. Joseph,2023-01-06,2024-06-22,13.04085,-58.91812,Good,False
,"St Ramirez, Cooper and Stone Hosp.",Hospital,193.0,beds,St. Andrew,2024-12-30,2021-10-24,12.82983,-58.76473,Follow-up 2023,True
,"St Ramirez, Cooper and Stone Hospital",Hospital,193.0,beds,St. Andrew,2024-12-30,2021-10-24,12.82983,-58.76473,Follow-up 2023,True
,Jones-Moon,Health Centre,391.0,units,St. James,2023-10-21,2018-09-20,13.18918,-59.29334,Good,True
46.0,Contreras-Moreno Hospital,Health Centre,99.0,patients,St. Michael,2016-08-28,2024-11-24,13.11947,-58.9958,,False
45.0,Pierce and Sons Polyclinic,Clinic,10.0,beds,St. Peter,2024-11-24,2020-06-01,13.04323,-59.15415,Reinspection due,True
,Jordan-David Infirmary,Community Health Centre,480.0,beds,St. Joseph,2023-05-13,2023-01-19,13.16627,-59.19557,Follow-up 2023,True
5696.0,Rodriguez-Rowe,Hospital,301.0,beds,St. Andrew,2023-10-17,2019-07-25,12.96529,-58.88989,Reinspection due,True
9907.0,Jackson-Jimenez Clin.,Health Centre,80.0,capacity,Christ Church,2023-05-02,2022-05-12,13.206666666666665,-58.72,Follow-up 2023,True
9907.0,Jackson-Jimenez Clinic,Health Centre,80.0,capacity,Christ Church,2023-05-02,2022-05-12,13.206666666666665,-58.72,Follow-up 2023,True
,Alvarez-Brown St.James,Community Health Centre,301.0,cots,St. James,2019-06-13,2025-03-04,13.04233,-58.86532,Reinspection due,False
8588.0,St. Henson-Stevenson Infirmary,Hospital,395.0,cots,St. James,2022-05-07,2019-06-03,13.05808,-59.14849,Reinspection due,True
,Brown LLC,Health Centre,223.0,units,St. Andrew,2017-01-09,2023-11-11,13.11308,-59.08064,Follow-up 2023,False
,St Cox-Moore Medical Center,Health Centre,219.0,units,St. Peter,2025-06-02,2018-04-23,13.04427,-59.02049,Reinspection due,True
,Wilson-Williams,Health Centre,412.0,beds,St. George,2017-05-06,2025-03-14,13.06101,-59.01962,,False
9887.0,st. Stone Ltd Hosp.,Community Health Centre,474.0,beds,St. Michael,2018-06-23,2021-03-07,12.74299,-59.09398,Needs upgrade,False
,Williams Group Hosp.,Health Centre,422.0,units,St. Joseph,2019-08-05,2025-09-20,12.8461,-59.20678,Follow-up 2023,False
,Williams Group Hospital,Health Centre,422.0,units,St. Joseph,2019-08-05,2025-09-20,12.8461,-59.20678,Follow-up 2023,False
56.0,"Webb,-King-and-Logan",Clinic,223.0,patients,St. Michael,2017-12-05,2018-03-19,12.73912,-59.05921,Reinspection due,False
204155.0,Mendoza-Montoya Christ,Community Health Centre,4.0,cots,Christ Church,2019-01-11,2020-01-12,13.07437,-58.83287,,False
68.0,Mercado-Inc Health Centre,Polyclinic,10.0,beds,St. Joseph,2016-06-14,2020-05-04,12.885277777777777,-59.09138888888889,,False
2.0,Thompson-Villanueva Hosp.,Hospital,10.0,beds,St. John,2024-01-12,2025-08-02,12.95905,-58.93751,Reinspection due,False
994.0,"Sims, Morris and Wright",Hospital,149.0,units,St. Michael,2020-03-26,2023-09-04,13.11038,-58.98435,Follow-up 2023,False
9862.0,Wilson-Scott Polyclinic,Health Centre,150.0,beds,St. Michael,2016-01-25,2020-03-02,12.866388888888888,-58.861111111111114,Reinspection due,False
9859.0,"St. Williams, Rogers and Pitts Medical Center",Health Centre,10.0,beds,St. George,2024-02-02,2018-08-13,13.15835,-58.72827,Follow-up 2023,True
864.0,Bates-Myers,Community Health Centre,142.0,cots,St. Joseph,2025-12-29,2023-07-16,12.90594,-59.03447,Reinspection due,True
,"Moore, Hernandez and Thomas St.George",Community Health Centre,308.0,units,St. George,2019-04-02,2021-04-18,12.765,-59.00388888888889,Follow-up 2023,False
9847.0,Williams-Smith Clinic,Health Centre,20.0,beds,Christ Church,2022-10-23,2023-04-10,12.97245,-59.03279,,False
2345.0,"Malone, Jones and Robbins Infirmary",Health Centre,480.0,patients,St. Michael,2023-08-08,2020-11-02,12.96314,-59.03151,Reinspection due,True
9840.0,Moyer Inc Christ,Hospital,308.0,cots,Christ Church,2025-04-21,2021-01-10,13.146388888888888,-58.94416666666666,,True
,Richardson-Inc,Health Centre,140.0,units,St. Joseph,2016-06-08,2023-09-18,13.262777777777778,-58.97805555555556,,False
,Chavez Ltd Hosp.,Hospital,93.0,cots,St. Lucy,2019-09-11,2022-03-03,13.02697,-58.89178,Reinspection due,False
,"Brown,-White-and-Sanchez",Polyclinic,10.0,beds,St. Lucy,2020-12-27,2019-05-26,12.88844,-58.92057,Reinspection due,True
,"Cole, Davis and Gregory",Health Centre,327.0,patients,St. James,2022-10-12,2021-08-23,13.04761,-59.21952,Reinspection due,True
9824.0,"Morales,-Jacobs-and-Simon Hospital Christ",Polyclinic,438.0,beds,Christ Church,2021-04-20,2021-02-07,13.216,-59.03192,Needs upgrade,True
7.0,St. Malone-and-Sons Hosp.,Health Centre,10.0,beds,St. Andrew,2018-09-23,2025-05-30,12.920277777777777,-59.0925,Reinspection due,False
9800.0,St. Miller-and-Sons Polyclinic,Polyclinic,6.0,beds,St. James,2017-07-19,2024-07-28,13.053611111111111,-59.26861111111111,Needs upgrade,False
77.0,"Miller, Hansen and Greene Clinic St.Lucy",Hospital,142.0,beds,St. Lucy,2021-11-08,2021-06-26,12.74908,-58.75456,Needs upgrade,True
,Tucker Ltd St.George,Clinic,485.0,patients,St. George,2022-10-06,2021-09-22,13.28579,-58.85017,,True
734.0,Smith-Davenport Hosp. ST. NewLine,Health Centre,10.0,beds,St. Joseph,2024-11-10,2024-06-21,12.779722222222222,-59.16638888888889,Reinspection due,True
9785.0,st. Duran-LLC,Hospital,471.0,units,St. Peter,2019-01-26,2018-05-17,13.266388888888889,-59.07916666666667,Follow-up 2023,True
9779.0,"st. Lee, Hall and Newman Health Centre",Health Centre,329.0,cots,St. Peter,2023-03-09,2024-09-07,13.14957,-59.25301,Reinspection due,False
,"St. Jimenez, Ortiz and Wilson",Clinic,284.0,patients,St. John,2022-12-07,2025-05-26,13.21514,-58.82988,,False
,"Abbott, Lowery and Parrish Medical Center",Polyclinic,132.0,beds,St. Joseph,2019-12-17,2024-10-11,12.73557,-59.00063,,False
,"Chapman, Hall and Gardner Infirmary",Health Centre,105.0,units,St. Michael,2022-04-11,2022-01-17,12.88999,-59.17603,Needs upgrade,True
,"Kelly, Cervantes and Salinas",Community Health Centre,417.0,beds,St. George,2016-12-03,2019-09-19,12.70497,-59.19715,Follow-up 2023,False
721.0,Cruz Ltd Health Centre ST.,Health Centre,10.0,beds,St. Joseph,2024-12-27,2021-06-13,13.06407,-58.70674,Follow-up 2023,True
95.0,"st. Ray, Smith and Turner Hosp.",Health Centre,345.0,patients,St. Lucy,2016-06-05,2021-01-10,13.07508,-58.70656,Good,False
94.0,St. Fox Ltd,Clinic,191.0,patients,St. Peter,2016-05-06,2021-10-06,12.95493,-59.11045,Needs upgrade,False
,st. Cole-Inc Hospital,Polyclinic,167.0,beds,St. Joseph,2019-12-13,2020-09-30,13.15694,-58.86443,,False
89.0,St. Snyder-Morales Medical Center,Clinic,166.0,patients,St. Joseph,2021-11-03,2018-12-26,12.744444444444444,-59.1075,Good,True
,"Williams, Sanders and Turner Health Centre",Health Centre,310.0,beds,St. John,2019-07-31,2024-09-25,12.88486,-58.98132,Follow-up 2023,False
,"Thompson,-Williams-and-Spears",Hospital,33.0,units,St. James,2021-09-01,2018-03-20,12.91448,-58.7713,Needs upgrade,True
9768.0,James-Group Hosp.,Health Centre,445.0,units,St. Peter,2025-11-28,2022-11-04,13.05149,-59.02152,Reinspection due,True
,st. Pearson-Collins Health Centre,Health Centre,168.0,beds,St. James,2023-07-15,2019-07-28,12.87934,-59.00827,Good,True
9748.0,Lynch Group Medical Center,Clinic,315.0,beds,St. John,2016-03-30,2024-09-02,13.00413,-59.07425,,False
9745.0,King-and-Sons,Clinic,208.0,cots,St. James,2024-07-08,2024-10-30,12.80985,-58.81781,Follow-up 2023,False
104.0,St George Ltd Clinic,Health Centre,71.0,cots,St. Andrew,2018-05-24,2024-08-11,13.05713,-58.87857,Reinspection due,False
427288.0,"Johnson, Miller and Flores ST.",Polyclinic,85.0,beds,St. Michael,2020-07-28,2020-03-11,13.23448,-59.04058,Follow-up 2023,True
9739.0,St Eaton-Mcdaniel Health Centre,Clinic,10.0,beds,St. George,2018-12-18,2024-10-21,13.29725,-58.98588,Needs upgrade,False
,"Davis, Gross and Johnson Health Centre ST.",Clinic,99.0,patients,St. Peter,2024-07-21,2023-11-24,12.75904,-59.10767,,True
9726.0,Wall Inc,Clinic,21.0,units,St. Lucy,2017-01-17,2025-06-21,13.14961,-59.27245,Good,False
9723.0,"st. Parsons, Norman and Dominguez Hosp.",Community Health Centre,383.0,beds,St. Joseph,2018-01-14,2025-11-22,12.755277777777778,-58.74166666666667,Needs upgrade,False
9723.0,"st. Parsons, Norman and Dominguez Hospital",Community Health Centre,383.0,beds,St. Joseph,2018-01-14,2025-11-22,12.755277777777778,-58.74166666666667,Needs upgrade,False
538.0,"Scott, Deleon and Campbell Medical Center St.George",Polyclinic,162.0,beds,St. George,2016-07-18,2024-03-06,13.1494,-59.22685,Needs upgrade,False
,Davenport-Freeman,Community Health Centre,421.0,beds,St. George,2022-04-24,2024-02-18,12.9449,-59.05015,,False
9713.0,"Drake,-Jackson-and-Rodriguez Polyclinic",Hospital,7.0,capacity,St. Peter,2025-04-14,2018-02-14,13.25942,-59.25914,Follow-up 2023,True
9709.0,Bryant-Inc Hospital,Health Centre,10.0,beds,St. Peter,2019-10-01,2020-04-21,13.20261,-59.13511,Good,False
,"Dominguez, Phillips and Wagner Infirmary",Health Centre,4.0,units,St. Lucy,2021-05-05,2022-04-03,13.07555,-59.24906,Reinspection due,False
9697.0,St. Reynolds Group,Polyclinic,90.0,beds,St. Peter,2024-11-09,2023-04-22,13.22997,-58.84117,Good,True
9696.0,Khan-Kirby Clinic CHRIST,Health Centre,482.0,patients,Christ Church,2025-01-15,2020-11-03,12.98055,-58.70673,Reinspection due,True
9691.0,"Berry, Mullen and Wilcox Hospital",Hospital,416.0,capacity,St. John,2019-03-27,2025-06-10,12.81723,-58.92755,Reinspection due,False
9686.0,Booker LLC St.Michael,Polyclinic,10.0,beds,St. Michael,2016-07-30,2024-02-21,12.86328,-58.89331,Needs upgrade,False
116.0,St. Harrison-White,Health Centre,28.0,beds,St. John,2022-08-14,2021-03-24,12.73681,-59.2131,Needs upgrade,True
114.0,"Walsh,-Garcia-and-Knox",Clinic,314.0,units,St. James,2017-04-30,2024-06-08,13.12108,-58.7848,Reinspection due,False
111.0,St. Hardy-Contreras,Health Centre,10.0,beds,St. Peter,2020-12-14,2021-10-03,13.280833333333334,-59.13138888888889,Good,False
9683.0,St. James-Rice Polyclinic,Hospital,135.0,beds,St. John,2016-01-23,2022-04-30,13.21781,-58.73441,Good,False
9679.0,Contreras-Mahoney Hosp.,Health Centre,283.0,capacity,St. Lucy,2021-03-15,2019-09-23,12.96821,-58.99873,Good,True
,Morales Group Health Centre ChristChurch,Clinic,297.0,beds,Christ Church,2024-01-13,2025-04-04,12.84415,-59.20009,Good,False
9674.0,Powell Ltd,Health Centre,10.0,beds,St. James,2019-05-06,2022-05-15,13.20137,-58.86528,,False
9671.0,Butler-Haney,Community Health Centre,10.0,beds,St. John,2021-11-12,2021-03-11,13.13413,-59.05518,,True
9660.0,"Hernandez, Davis and Hartman Clinic Christ",Hospital,255.0,beds,Christ Church,2024-09-16,2023-02-09,13.29615,-58.70793,Follow-up 2023,True
9659.0,"Reed, Rodgers and Rodriguez",Health Centre,109.0,beds,St. James,2019-01-18,2018-11-22,12.73565,-58.90339,Needs upgrade,True
9656.0,St. Hamilton and Sons,Polyclinic,354.0,cots,St. Joseph,2019-06-18,2022-06-01,13.17817,-59.29234,Good,False
9651.0,"Davis, Flynn and Jenkins",Community Health Centre,102.0,cots,St. Joseph,2023-11-14,2022-04-18,13.00396,-59.17363,Good,True
9646.0,"St Bowen,-Weaver-and-Kramer Medical Center",Hospital,10.0,beds,St. Joseph,2017-06-14,2025-06-13,12.97384,-59.17271,Follow-up 2023,False
9644.0,"Vazquez, Johnson and Santos Hospital Christ",Hospital,275.0,beds,Christ Church,2025-08-19,2025-06-17,12.84081,-59.07664,,True
,Brown-Lucas Clinic,Polyclinic,422.0,capacity,St. James,2018-12-23,2018-12-08,12.90411,-58.84414,Reinspection due,True
134.0,Kerr-Vincent,Community Health Centre,10.0,beds,St. George,2020-12-07,2025-06-19,12.90485,-58.8163,Reinspection due,False
132.0,Peterson PLC Clinic,Health Centre,292.0,cots,St. George,2023-06-07,2021-04-07,13.20252,-59.17851,Needs upgrade,True
123.0,Stewart-Webb Christ,Health Centre,10.0,beds,Christ Church,2018-11-16,2019-10-13,13.239999999999998,-59.25222222222222,Good,False
9641.0,Parks Inc St. Joseph,Polyclinic,172.0,beds,St. Joseph,2021-11-29,2025-05-19,12.80285,-58.8444,Follow-up 2023,False
9638.0,Morris LLC Hosp. ChristChurch,Hospital,374.0,cots,Christ Church,2022-12-02,2021-05-08,12.8954,-59.1227,,True
,"Hardy, Hart and Valdez Health Centre",Health Centre,487.0,beds,St. George,2016-10-23,2020-03-02,12.9476,-59.18217,Needs upgrade,False
,st. Jones LLC Clinic,Community Health Centre,260.0,beds,St. Andrew,2022-05-03,2023-10-05,12.79928,-58.87342,,False
9629.0,Carson-Zavala Polyclinic,Polyclinic,52.0,capacity,St. John,2019-02-18,2020-10-06,13.10034,-59.06397,Reinspection due,False
9619.0,St. Hess-Irwin Polyclinic,Hospital,135.0,beds,St. Michael,2020-01-19,2024-06-01,12.87618,-58.8954,,False
9608.0,Harrell PLC Hosp.,Health Centre,10.0,beds,St. Joseph,2021-03-12,2018-05-21,13.1233,-59.18783,,True
73931.0,Graham Inc Christ,Health Centre,10.0,beds,Christ Church,2017-01-26,2025-07-30,13.15818,-58.70289,,False
9599.0,"St. Butler,-Mueller-and-Dickerson Infirmary",Community Health Centre,10.0,beds,St. John,2019-03-04,2022-03-05,12.95075,-58.7958,Needs upgrade,False
9592.0,Wallace-Page,Hospital,136.0,beds,St. James,2023-12-16,2024-07-24,12.79388,-58.99036,Good,False
,Adams-Anderson,Clinic,273.0,capacity,St. Andrew,2024-02-28,2021-03-06,12.87856,-59.04716,Reinspection due,True
9583.0,Blankenship-Martin Hosp. Christ,Polyclinic,182.0,patients,Christ Church,2020-07-26,2019-07-30,13.275,-58.825,Follow-up 2023,True
,Gordon-Lozano Infirmary,Community Health Centre,417.0,beds,St. Michael,2016-11-15,2019-10-22,12.843611111111112,-59.22555555555556,Reinspection due,False
143.0,Parker-Inc Clinic,Health Centre,345.0,beds,Christ Church,2016-02-02,2022-03-23,12.96476,-58.79975,Follow-up 2023,False
6688.0,St. Good-Bailey Medical Center,Polyclinic,314.0,patients,St. John,2019-06-28,2025-06-07,12.77955,-59.19385,Follow-up 2023,False
,Brooks-Williams,Hospital,275.0,cots,St. James,2016-06-29,2025-03-28,13.24493,-58.73839,Reinspection due,False
28121.0,"Hernandez,-Lee-and-Brown Infirmary",Health Centre,392.0,cots,St. Joseph,2018-09-05,2018-05-19,13.03842,-58.7621,Needs upgrade,True
9573.0,"St. Scott, Roth and Williams",Polyclinic,317.0,beds,St. George,2023-12-23,2025-01-01,12.98231,-59.02741,Good,False
9566.0,Lawrence-Silva Health Centre ST.,Health Centre,10.0,beds,St. Michael,2021-03-07,2019-06-05,13.20376,-59.2305,,True
9565.0,"Cook, Snow and Hernandez Polyclinic",Community Health Centre,485.0,capacity,St. George,2025-10-23,2022-01-03,13.20765,-58.93772,Good,True
9058.0,Hernandez Inc,Health Centre,119.0,beds,St. Andrew,2016-03-30,2024-03-28,13.1765,-59.23545,Reinspection due,False
9559.0,Conley-Trujillo,Community Health Centre,71.0,beds,St. Michael,2017-11-14,2019-07-23,12.85006,-58.99502,,False
9546.0,Williams-Nicholson Medical Center,Hospital,475.0,patients,St. Joseph,2018-06-09,2025-01-21,12.77259,-59.22375,Good,False
,Johnson-Lynn Medical Center CHRIST,Hospital,380.0,beds,Christ Church,2016-07-06,2024-04-11,13.24778,-58.82309,Follow-up 2023,False
9541.0,Davis-Blankenship Polyclinic,Health Centre,10.0,beds,Christ Church,2024-02-03,2025-10-09,12.72116,-59.23793,Reinspection due,False
162.0,Cooper-Gardner Medical Center,Hospital,46.0,beds,St. Joseph,2017-10-24,2021-03-28,12.75936,-58.89165,Follow-up 2023,False
158.0,Lewis-Hernandez ST.,Health Centre,95.0,beds,St. Lucy,2017-10-17,2022-05-17,12.80165,-58.99437,Reinspection due,False
155.0,Graves and Sons,Health Centre,129.0,beds,St. Michael,2023-12-05,2020-11-08,13.29619,-58.79872,,True
9539.0,Brewer-Group,Hospital,364.0,beds,St. John,2021-06-12,2024-01-07,12.74291,-58.81332,,False
9537.0,Hall-LLC Hosp. Christ,Health Centre,200.0,units,Christ Church,2024-08-24,2022-01-29,12.94929,-59.03743,Follow-up 2023,True
9536.0,"St. Watson,-Blankenship-and-Duran Polyclinic",Health Centre,406.0,beds,St. Peter,2020-10-10,2025-12-03,13.0145,-59.10442,Needs upgrade,False
9535.0,"Johns, Rodriguez and Jackson",Polyclinic,283.0,beds,St. Lucy,2018-05-06,2020-01-05,12.85093,-59.17161,Reinspection due,False
9524.0,Banks-West Clinic,Polyclinic,136.0,beds,St. George,2023-05-29,2020-10-31,12.93045,-58.9376,Good,True
,"st. Blackburn, Knight and Franklin Health Centre",Community Health Centre,484.0,capacity,St. Michael,2024-05-30,2021-04-08,12.98128,-59.15765,Needs upgrade,True
9519.0,Brown Inc Hospital,Hospital,161.0,units,St. John,2016-05-30,2019-01-23,12.79283,-59.24712,Good,False
29265.0,Long LLC,Community Health Centre,184.0,beds,St. James,2020-07-29,2024-05-10,12.79257,-59.28226,Needs upgrade,False
,St. Ramirez-Huang Polyclinic,Polyclinic,310.0,beds,St. Lucy,2018-05-08,2023-08-13,13.12025,-59.23336,Needs upgrade,False
,Garcia-Group Infirmary,Hospital,298.0,patients,St. Peter,2017-04-19,2020-05-24,12.77417,-58.82748,Follow-up 2023,False
8210.0,"Ruiz, Peterson and Luna Clinic",Hospital,67.0,cots,St. James,2024-06-17,2024-07-15,12.70225,-58.98911,,False
,"Huff, Rodriguez and Williams Health Centre",Clinic,35.0,capacity,St. Peter,2017-09-26,2022-12-03,12.973888888888888,-59.155833333333334,Good,False
,Smith-Richard Hosp. ST.,Clinic,84.0,units,St. John,2022-01-16,2022-03-29,12.81167,-58.78371,Follow-up 2023,False
9488.0,"Ramirez, Brown and Clark",Community Health Centre,387.0,units,St. Michael,2025-07-23,2018-07-05,13.08359,-58.95853,Reinspection due,True
38069.0,"Sanders, Johnson and Jennings",Clinic,19.0,capacity,St. James,2024-04-26,2023-09-23,12.72368,-58.95986,Good,True
174.0,Peterson Inc,Hospital,369.0,cots,St. George,2025-04-13,2022-07-03,13.231388888888889,-59.14805555555556,,True
8588.0,"Anderson, Howard and Johnson Hosp.",Hospital,10.0,beds,St. Michael,2024-12-06,2025-03-06,12.91079,-59.15274,,False
8588.0,"Anderson, Howard and Johnson Hospital",Hospital,10.0,beds,St. Michael,2024-12-06,2025-03-06,12.91079,-59.15274,,False
,Reid-Group Clinic,Hospital,173.0,cots,St. George,2023-03-07,2025-05-12,12.895833333333332,-59.03638888888889,Follow-up 2023,False
,"Lopez, Dawson and Stewart Health Centre",Health Centre,10.0,beds,St. Joseph,2025-01-16,2025-10-13,12.91861111111111,-58.955000000000005,Needs upgrade,False
9461.0,"Velazquez, Thompson and Harris",Hospital,280.0,beds,St. James,2017-05-23,2025-06-12,13.17893,-59.28267,,False
888.0,St. Shepherd-Williams Clinic,Health Centre,10.0,beds,St. Lucy,2022-07-11,2023-06-05,12.8423,-58.70002,Reinspection due,False
9457.0,"St. Simon, Freeman and Fowler",Health Centre,30.0,beds,St. Andrew,2021-07-17,2021-03-15,13.20011,-58.91533,Reinspection due,True
9455.0,Fernandez-PLC Hosp. ST.,Polyclinic,291.0,beds,St. Joseph,2018-12-28,2022-04-11,12.911111111111111,-58.75222222222222,Reinspection due,False
9455.0,Fernandez-PLC Hospital ST.,Polyclinic,291.0,beds,St. Joseph,2018-12-28,2022-04-11,12.911111111111111,-58.75222222222222,Reinspection due,False
,"St. Mclean,-Montgomery-and-Mueller",Polyclinic,117.0,beds,St. Joseph,2020-11-11,2024-08-04,13.16047,-59.13176,,False
92.0,Howard Inc Polyclinic ST.,Clinic,338.0,capacity,St. Andrew,2019-01-13,2018-07-03,12.85297,-59.25959,Good,True
,"Thomas,-Hernandez-and-Turner Hosp.",Hospital,10.0,beds,St. Joseph,2024-06-02,2021-05-12,13.04111111111111,-59.14888888888889,,True
,Reeves Inc,Hospital,280.0,capacity,St. Andrew,2016-05-08,2024-11-21,13.1023,-58.77721,Reinspection due,False
197.0,St. Reed Group,Health Centre,137.0,capacity,St. George,2021-08-09,2018-12-17,13.19605,-58.95608,Good,True
,Johnson-Martinez ST.,Polyclinic,131.0,units,St. Peter,2018-03-21,2025-03-10,12.73095,-59.28849,Needs upgrade,False
187.0,Rhodes and Sons ST.,Hospital,215.0,beds,St. Lucy,2023-09-15,2023-09-06,13.13166,-58.75448,Needs upgrade,True
,"Nelson, Walters and Olson Hospital",Health Centre,237.0,beds,St. James,2022-05-10,2024-03-27,13.16904,-58.75605,Reinspection due,False
9438.0,Moyer-Flowers Infirmary,Health Centre,363.0,beds,St. Peter,2016-04-19,2024-05-19,13.03605,-58.77765,Reinspection due,False
,St. Cruz-LLC,Health Centre,25.0,beds,St. George,2024-09-08,2019-09-18,12.95237,-59.14217,Needs upgrade,True
9430.0,St Neal-Lindsey Medical Center,Hospital,79.0,units,St. Joseph,2023-04-01,2019-04-17,12.92022,-59.27669,Reinspection due,True
62496.0,Barrera Group ST.,Health Centre,160.0,patients,St. John,2024-07-28,2019-02-15,13.043333333333333,-59.18722222222222,Good,True
,Hughes Group Medical Center,Clinic,125.0,units,St. James,2025-08-30,2018-11-05,13.11714,-58.8252,Reinspection due,True
9421.0,St. Wilson-Reed Clinic,Clinic,153.0,cots,St. Michael,2020-02-06,2020-07-27,13.175833333333333,-59.17666666666666,Follow-up 2023,False
9413.0,Wade PLC ycuL,Health Centre,211.0,beds,St. Lucy,2016-04-17,2023-02-02,12.91942,-59.14938,Follow-up 2023,False
205.0,St Wheeler-PLC Infirmary,Community Health Centre,96.0,capacity,St. John,2020-03-12,2022-03-12,12.909444444444444,-59.04972222222222,Reinspection due,False
16.0,Smith-Carlson Clin.,Clinic,39.0,units,St. Andrew,2017-04-22,2024-05-17,13.27582,-58.86276,Reinspection due,False
16.0,Smith-Carlson Clinic,Clinic,39.0,beds,St. Andrew,2017-04-22,2024-05-17,13.27582,-58.86276,Reinspection due,False
9400.0,"Campbell, Jones and Larson Clinic NewLine",Polyclinic,471.0,units,Christ Church,2019-11-18,2025-02-25,12.72946,-59.07202,,False
9397.0,St. Johnson-Morris Infirmary,Community Health Centre,10.0,beds,St. Lucy,2024-05-05,2019-12-07,12.71626,-59.03574,,True
9393.0,Brown-Vang,Hospital,165.0,units,St. James,2023-02-21,2023-03-25,13.10361111111111,-59.217222222222226,Reinspection due,False
,Vang Inc Polyclinic,Health Centre,27.0,cots,St. Michael,2018-09-11,2019-06-26,13.25657,-58.79464,Good,False
9384.0,Vaughn-Gray St.Peter,Health Centre,178.0,units,St. Peter,2017-08-04,2025-01-24,13.16154,-58.79924,Good,False
,"St. Sanchez, Daniels and Mclean",Health Centre,464.0,cots,St. James,2025-08-05,2023-11-30,13.25926,-58.80139,Needs upgrade,True
9379.0,"Bradford,-Garcia-and-Drake",Hospital,3.0,beds,St. Andrew,2023-04-18,2022-07-01,13.222,-59.06948,Good,True
9378.0,Booth and Sons Medical Center St. John,Polyclinic,376.0,capacity,St. John,2020-10-13,2024-04-12,12.94064,-59.08629,Good,False
9376.0,Bradley Inc,Hospital,10.0,beds,St. Peter,2021-03-24,2023-06-29,12.706944444444444,-58.89333333333333,Reinspection due,False
9370.0,Ho-PLC Infirmary,Clinic,267.0,beds,St. Peter,2023-10-22,2020-10-03,13.13715,-58.95627,Good,True
9360.0,Foster-and-Sons Hosp.,Hospital,10.0,beds,St. John,2024-09-25,2023-06-09,13.11766,-58.70769,Good,True
289289.0,Wilson and Sons Hosp.,Hospital,272.0,beds,Christ Church,2025-12-11,2023-07-09,13.19908,-59.22492,Follow-up 2023,True
99846.0,Martin-Brown,Hospital,332.0,beds,St. James,2022-02-14,2023-12-08,13.02861,-58.75787,,False
,Rivera LLC,Health Centre,6.0,beds,St. Lucy,2019-12-05,2019-03-24,13.03333,-59.27098,,True
215.0,Bautista-Wilson Health Centre,Polyclinic,10.0,beds,St. Lucy,2020-09-17,2021-01-19,13.09899,-58.72884,Follow-up 2023,False
,Cervantes Ltd,Clinic,20.0,cots,St. Michael,2025-01-07,2024-09-21,13.07802,-59.27196,Reinspection due,True
,Brown Ltd Hosp.,Clinic,227.0,patients,St. Andrew,2025-12-30,2022-01-03,12.85592,-58.94054,Needs upgrade,True
9327.0,St. Michael Inc,Hospital,438.0,beds,St. George,2017-10-17,2021-11-19,13.28277777777778,-58.897777777777776,,False
41395.0,Garrett Group Health Centre,Health Centre,137.0,capacity,St. Lucy,2023-07-30,2024-03-10,13.23487,-58.9025,Needs upgrade,False
9322.0,"St. Fletcher, Richard and Hart Clinic NewLine",Hospital,246.0,beds,St. Joseph,2020-09-21,2025-05-23,12.96908,-59.24151,Reinspection due,False
,Hernandez LLC ST.,Polyclinic,197.0,beds,St. Michael,2025-06-11,2025-06-01,13.06383,-59.12433,Needs upgrade,True
,St. Castillo-Duran Clinic,Polyclinic,254.0,beds,St. Joseph,2021-07-13,2019-03-04,13.04924,-58.70402,,True
9312.0,Green-Johnson Hosp.,Clinic,291.0,beds,St. Andrew,2024-06-23,2020-12-16,12.9122,-59.14206,,True
9312.0,Green-Johnson Hospital,Clinic,291.0,beds,St. Andrew,2024-06-23,2020-12-16,12.9122,-59.14206,,True
9311.0,st. Kelly-Mcfarland,Health Centre,12.0,beds,St. Andrew,2016-08-21,2020-05-23,12.87807,-58.94863,Follow-up 2023,False
773.0,"Young,-Foley-and-Andersen Health Centre",Health Centre,10.0,beds,St. John,2024-05-02,2022-07-25,12.83588,-58.76903,Good,True
9308.0,Rollins-Gutierrez,Health Centre,231.0,beds,Christ Church,2024-11-21,2021-10-05,12.82086,-59.12727,Needs upgrade,True
9306.0,Jones and Sons Hosp. St.John,Hospital,28.0,units,St. John,2021-03-18,2020-12-05,13.14885,-59.12633,Reinspection due,True
9306.0,Jones and Sons Hospital St.John,Hospital,28.0,units,St. John,2021-03-18,2020-12-05,13.14885,-59.12633,Reinspection due,True
9299.0,"Ayers,-Gordon-and-Burnett Medical Center",Hospital,337.0,beds,St. Joseph,2016-01-23,2021-12-16,13.286388888888888,-59.29944444444444,Reinspection due,False
19564.0,Jennings Inc Polyclinic,Health Centre,402.0,beds,St. John,2022-08-13,2022-07-03,13.106944444444444,-58.95916666666667,,True
,Wood Ltd Medical Center ST.,Community Health Centre,282.0,patients,St. Lucy,2016-08-23,2020-09-30,13.017222222222223,-58.934999999999995,Reinspection due,False
,Vasquez-Deleon,Hospital,268.0,beds,St. Michael,2024-09-21,2023-05-22,12.7327,-58.82951,,True
239.0,"Henry, Sharp and Mcguire Health Centre ST.",Clinic,393.0,beds,St. John,2025-02-22,2024-09-01,12.94138888888889,-58.719722222222224,Reinspection due,True
39827.0,St. Foster-Jones Infirmary,Health Centre,160.0,capacity,St. John,2022-10-07,2021-06-05,12.84998,-59.06339,Reinspection due,True
234.0,Thomas Ltd Polyclinic,Polyclinic,197.0,beds,St. George,2019-01-11,2019-09-03,13.10651,-58.94891,,False
231.0,"Oliver,-Henderson-and-Allen Hospital",Health Centre,103.0,beds,St. James,2022-06-25,2024-07-20,12.82374,-58.73416,Good,False
995.0,"Patterson, Johnson and Richards",Clinic,395.0,cots,St. Peter,2020-10-23,2018-05-03,13.004722222222222,-58.72027777777778,Reinspection due,True
229.0,St Palmer Group Polyclinic,Hospital,10.0,beds,St. Peter,2016-02-12,2023-07-24,13.07905,-58.86479,Needs upgrade,False
9295.0,Woods-Smith,Health Centre,9.0,beds,St. George,2016-10-20,2020-10-18,13.08749,-59.14339,,False
9294.0,Ochoa-Inc Medical Center,Hospital,10.0,beds,St. Joseph,2019-02-15,2025-07-16,12.84888888888889,-59.0075,Reinspection due,False
9280.0,Wheeler-Sharp Hosp.,Hospital,53.0,beds,St. James,2025-01-04,2024-01-10,13.2049,-58.96749,Reinspection due,True
9276.0,St. Brown-Anderson,Polyclinic,454.0,cots,St. John,2024-04-07,2022-08-13,13.24554,-59.06582,,True
9274.0,"Hernandez, Glover and Horton Hosp.",Polyclinic,452.0,capacity,St. James,2021-12-27,2020-07-23,12.77713,-58.93464,Follow-up 2023,True
71273.0,Williams Group Hosp. ST.,Hospital,412.0,cots,St. Joseph,2018-03-02,2025-12-16,13.29543,-58.93946,,False
9270.0,St. Gould-Group Infirmary,Hospital,74.0,beds,St. George,2020-03-31,2021-06-29,12.83867,-59.07535,Good,False
,St. Patterson-Johnson Clin.,Hospital,327.0,beds,St. Michael,2023-04-22,2025-07-05,12.843333333333334,-58.89833333333333,,False
,St. Patterson-Johnson Clinic,Hospital,327.0,beds,St. Michael,2023-04-22,2025-07-05,12.843333333333334,-58.89833333333333,,False
,"Petersen, Hardin and Rodriguez Hosp.",Clinic,52.0,beds,St. John,2021-02-15,2018-07-14,13.04453,-59.16238,Good,True
251.0,St. Davis LLC Polyclinic,Health Centre,378.0,cots,St. James,2020-10-19,2024-11-26,12.91238,-59.19373,Good,False
249.0,Blackburn-Garrett Hospital,Community Health Centre,42.0,cots,Christ Church,2020-11-02,2018-02-11,13.06359,-59.18586,,True
,Montgomery-Martinez Hosp. St.Lucy,Hospital,75.0,beds,St. Lucy,2024-11-08,2018-11-20,13.0231,-59.15176,,True
,"Petersen, Hardin and Rodriguez Hospital",Clinic,52.0,beds,St. John,2021-02-15,2018-07-14,13.04453,-59.16238,Good,True
65744.0,Mcdonald-Carter Clinic,Community Health Centre,87.0,capacity,St. George,2017-02-03,2023-02-19,13.17827,-58.84748,Needs upgrade,False
9418.0,"Ritter,-Yang-and-Diaz",Health Centre,139.0,cots,Christ Church,2025-05-18,2024-02-10,13.11398,-59.16945,Good,True
9257.0,Mejia-Hoffman Infirmary,Health Centre,9.0,beds,Christ Church,2023-07-25,2019-06-16,12.8779,-58.72353,Good,True
9256.0,Sullivan Group Health Centre,Polyclinic,356.0,beds,St. George,2025-11-14,2020-06-09,13.04334,-58.88497,Follow-up 2023,True
9246.0,Moore PLC Infirmary,Health Centre,448.0,beds,St. James,2016-08-18,2024-10-25,13.238333333333333,-59.178888888888885,Follow-up 2023,False
64120.0,Hill LLC Medical Center,Clinic,10.0,beds,St. George,2021-05-14,2025-04-27,13.17476,-58.98847,Needs upgrade,False
9240.0,White-Smith Medical Center St.Joseph,Health Centre,220.0,capacity,St. Joseph,2016-03-30,2018-09-05,12.93895,-59.28187,Good,False
268.0,st. Lane-Hughes Hospital,Polyclinic,130.0,patients,St. Michael,2025-01-29,2020-08-11,13.22022,-58.99185,Needs upgrade,True
263.0,Morgan-Monroe ST.,Health Centre,285.0,patients,St. Michael,2024-05-15,2025-02-15,12.993055555555555,-59.035555555555554,Follow-up 2023,False
,"Gordon, Cooley and Day Hosp.",Health Centre,484.0,beds,Christ Church,2019-06-25,2019-08-24,12.73528,-59.06767,Follow-up 2023,False
,"Sanders, Hughes and Lawson Infirmary St.Peter",Health Centre,253.0,beds,St. Peter,2021-08-31,2019-10-22,12.95668,-59.27602,Follow-up 2023,True
9237.0,Miles-Sherman Medical Center,Community Health Centre,10.0,beds,St. Lucy,2022-06-27,2020-10-11,13.14157,-59.20345,Follow-up 2023,True
599221.0,st. Johns LLC Polyclinic,Clinic,325.0,beds,St. Andrew,2023-03-03,2024-02-25,13.04662,-58.84571,,False
,Powell-Garrison Health Centre ST.,Hospital,483.0,units,St. James,2017-09-26,2018-03-02,13.210277777777778,-59.175,,False
553.0,St. Bowman-Lee Hosp.,Community Health Centre,300.0,units,St. Lucy,2025-11-01,2022-09-10,12.8748,-58.71057,,True
,Stark Ltd Hospital,Health Centre,177.0,capacity,St. Andrew,2024-07-08,2021-04-18,13.061944444444444,-58.85305555555556,Reinspection due,True
868.0,"St. Robinson, James and Newman",Health Centre,324.0,beds,St. George,2024-12-07,2024-04-20,12.90638888888889,-58.89972222222222,Reinspection due,True
43.0,Medina-Walker Clinic,Clinic,156.0,patients,St. Joseph,2023-03-07,2021-09-18,12.95992,-58.89441,Reinspection due,True
330.0,Robertson Inc,Polyclinic,10.0,beds,St. Peter,2020-09-15,2024-02-09,13.29939,-59.15354,,False
,Bowman-Nash,Clinic,424.0,cots,St. Peter,2022-08-06,2019-02-23,13.14339,-59.17059,Needs upgrade,True
281.0,"Lynch, Jones and Estrada Infirmary",Hospital,420.0,cots,St. James,2020-04-05,2019-07-20,12.847222222222223,-59.26638888888889,,True
,St. Rodriguez LLC,Health Centre,347.0,beds,St. Lucy,2019-05-09,2023-12-15,13.15146,-59.23034,Reinspection due,False
7888.0,White LLC Clinic,Clinic,20.0,capacity,St. Andrew,2017-08-06,2020-03-23,13.20439,-58.70947,Good,False
,"Johnson,-Thomas-and-Floyd Infirmary",Health Centre,10.0,beds,St. John,2024-02-13,2021-12-23,12.92674,-59.17478,,True
,"Calderon, George and Gonzales Medical Center",Health Centre,140.0,beds,Christ Church,2016-07-12,2024-11-25,12.84039,-59.16396,Reinspection due,False
273.0,"Joyce,-Williams-and-Rodriguez Hospital",Community Health Centre,350.0,cots,St. Peter,2023-11-22,2020-04-09,13.02106,-58.75282,Good,True
,Evans-Fernandez Health Centre,Health Centre,347.0,beds,St. Peter,2022-10-01,2024-08-26,12.83567,-59.21623,Good,False
9203.0,Robinson-Robertson Clinic St. John,Clinic,266.0,patients,St. John,2020-01-11,2018-02-10,12.70254,-59.22095,Follow-up 2023,True
9202.0,"Perry, Nelson and Long Infirmary St.John",Health Centre,433.0,patients,St. John,2019-06-18,2020-02-24,12.79,-59.08305555555556,Follow-up 2023,False
13.0,Clark-and-Sons,Community Health Centre,246.0,cots,St. John,2016-10-16,2019-07-31,13.261944444444444,-58.75083333333333,Follow-up 2023,False
551.0,Rose Ltd Infirmary,Health Centre,310.0,beds,St. Andrew,2016-09-17,2020-03-21,13.13097,-58.83678,Good,False
9185.0,"St. Clayton, Thompson and Andrews Polyclinic",Polyclinic,51.0,beds,St. Michael,2024-01-11,2018-12-11,12.85129,-59.24989,Follow-up 2023,True
7437.0,Reid-Cooper Infirmary,Health Centre,363.0,beds,St. George,2017-11-29,2019-01-19,13.26503,-59.01495,Follow-up 2023,False
,Murphy-Rodriguez Polyclinic,Health Centre,382.0,units,St. George,2016-06-10,2020-04-15,12.79787,-59.21414,Reinspection due,False
292.0,Garcia LLC Hosp.,Polyclinic,349.0,beds,St. Andrew,2019-09-15,2018-07-14,12.74465,-58.75414,Reinspection due,True
85.0,"Boyd,-Davis-and-Elliott Medical Center",Polyclinic,146.0,units,St. Peter,2024-11-13,2024-06-01,13.05313,-58.87985,Needs upgrade,True
287.0,Tanner Ltd Medical Center,Polyclinic,170.0,cots,St. Peter,2016-11-13,2023-05-11,12.75284,-58.93762,Reinspection due,False
9177.0,Stewart Ltd NewLine,Hospital,290.0,units,St. Peter,2024-12-26,2025-08-30,12.814166666666667,-59.095555555555556,,False
9175.0,"St. Davis,-Doyle-and-Brown Clinic",Hospital,176.0,beds,St. Joseph,2020-08-15,2025-01-26,12.923055555555555,-59.00194444444445,Follow-up 2023,False
9174.0,Smith-Roberts Medical Center St.James,Polyclinic,194.0,beds,St. James,2019-12-18,2022-07-07,13.21107,-59.14502,,False
,Duarte-Moss,Hospital,200.0,patients,St. Andrew,2018-12-09,2020-07-12,13.02314,-58.84516,Reinspection due,False
9169.0,"Nichols, Smith and Wilson Hosp.",Health Centre,246.0,capacity,St. Lucy,2016-12-30,2022-05-27,13.14177,-59.16491,Needs upgrade,False
,Carrillo-Leonard Hosp.,Hospital,10.0,beds,St. Peter,2025-04-17,2024-05-16,12.94123,-59.01788,Needs upgrade,True
9163.0,Owen PLC Medical Center,Health Centre,208.0,capacity,St. Joseph,2017-02-04,2024-01-17,13.076,-58.97933,Reinspection due,False
,Duran-Gray,Polyclinic,102.0,cots,St. Joseph,2022-05-25,2019-12-25,12.84757,-58.75203,Follow-up 2023,True
,Powell Group,Clinic,385.0,beds,St. George,2021-02-25,2020-09-02,13.24218,-59.00739,Follow-up 2023,True
,Higgins-Farmer Hosp.,Hospital,257.0,beds,St. Joseph,2024-03-30,2019-08-10,12.758888888888889,-59.217222222222226,,True
,Johnson PLC Health Centre,Hospital,10.0,beds,St. Andrew,2020-08-27,2025-01-16,12.86054,-58.74894,Good,False
,Fernandez-Farrell,Health Centre,476.0,capacity,St. Peter,2024-06-18,2021-08-21,12.783055555555556,-58.93861111111111,Needs upgrade,True
,Nelson-Inc Infirmary christ,Clinic,366.0,beds,Christ Church,2016-04-05,2023-12-10,13.09784,-58.82883,Reinspection due,False
,St. Thomas PLC Health Centre,Polyclinic,188.0,beds,St. Michael,2025-03-27,2019-12-26,12.89151,-59.27773,Reinspection due,True
9147.0,St. Taylor Inc Clinic,Health Centre,93.0,patients,St. Andrew,2018-01-30,2025-05-14,13.001944444444444,-58.754444444444445,Good,False
154.0,Pruitt and Sons Infirmary,Polyclinic,168.0,units,St. Andrew,2018-01-13,2022-09-03,13.257777777777777,-58.719166666666666,,False
,St Miles-Kaiser Hosp.,Hospital,480.0,units,St. Andrew,2024-02-16,2023-06-15,12.979722222222222,-58.742222222222225,Follow-up 2023,True
,St Miles-Kaiser Hospital,Hospital,480.0,units,St. Andrew,2024-02-16,2023-06-15,12.979722222222222,-58.742222222222225,Follow-up 2023,True
9136.0,Sandoval-Smith ST.,Health Centre,495.0,beds,St. George,2021-01-13,2024-02-19,12.716666666666667,-59.24166666666667,Needs upgrade,False
9135.0,"Carter, Baldwin and Rodriguez Medical Center",Health Centre,245.0,capacity,St. John,2021-09-26,2022-01-13,12.84,-58.83833333333334,Needs upgrade,False
281.0,"Bush,-Chan-and-Cole",Polyclinic,10.0,beds,Christ Church,2016-04-30,2022-09-13,13.11333,-58.71514,Follow-up 2023,False
9126.0,Barry Inc St. Andrew,Hospital,213.0,patients,St. Andrew,2017-12-29,2025-03-16,13.10524,-58.82999,Follow-up 2023,False
1.0,Hamilton-Benson,Clinic,444.0,cots,St. George,2024-05-13,2023-01-27,12.78321,-59.18358,Good,True
9116.0,Medina Inc Infirmary,Health Centre,10.0,beds,St. Andrew,2023-10-02,2021-11-06,12.70024,-58.94235,Needs upgrade,True
9115.0,Evans LLC,Hospital,255.0,capacity,Christ Church,2018-01-13,2019-05-13,13.29661,-59.13961,Follow-up 2023,False
,"Kirby, Cooper and Keller Polyclinic ChristChurch",Polyclinic,202.0,beds,Christ Church,2017-11-19,2024-10-17,13.22784,-59.17755,Follow-up 2023,False
,"Nelson, Tucker and Estes",Community Health Centre,127.0,capacity,St. John,2020-07-19,2024-08-30,12.91303,-59.29983,Reinspection due,False
326.0,St. Bernard-Simpson Health Centre,Health Centre,383.0,units,St. Andrew,2020-03-22,2025-06-17,13.193055555555556,-58.86222222222222,Needs upgrade,False
,Dixon Ltd Polyclinic Christ,Clinic,361.0,cots,Christ Church,2024-04-29,2018-03-23,12.873611111111112,-59.01138888888889,Reinspection due,True
317.0,"St. Rivera,-Hernandez-and-Murphy",Health Centre,12.0,capacity,St. Joseph,2023-06-22,2020-10-30,12.90553,-59.28329,Needs upgrade,True
9100.0,"Navarro, Taylor and Wilson",Polyclinic,437.0,capacity,St. Peter,2018-06-15,2023-11-11,12.92151,-58.78648,,False
,"Landry, Miller and Johnson",Clinic,10.0,beds,St. Lucy,2025-01-06,2023-04-12,12.7908,-58.85786,,True
,Greer-Ltd Infirmary,Health Centre,175.0,beds,St. Joseph,2020-06-28,2025-09-11,12.818888888888889,-58.77833333333333,Follow-up 2023,False
9087.0,"Frederick, Anderson and Pittman Polyclinic ST.",Clinic,184.0,beds,St. John,2018-08-29,2018-08-22,13.26314,-59.19844,,True
9086.0,St. Arellano Group Medical Center,Health Centre,342.0,beds,St. Joseph,2020-01-27,2019-08-27,13.100555555555555,-58.86138888888889,Needs upgrade,True
,Evans-Roach,Polyclinic,10.0,beds,St. George,2025-09-28,2024-11-05,12.96928,-59.16835,Follow-up 2023,True
9082.0,St. Shelton Ltd,Polyclinic,398.0,beds,St. Lucy,2025-07-07,2023-06-11,13.03469,-59.19199,Follow-up 2023,True
9071.0,"st. Fleming, Ferguson and Rangel Medical Center",Health Centre,57.0,capacity,St. James,2017-09-03,2022-03-08,12.80531,-58.87685,Reinspection due,False
,Hernandez-Harris,Health Centre,402.0,units,St. Peter,2025-07-25,2020-09-16,13.1741,-59.0118,Follow-up 2023,True
,"Poole, Colon and Bird Infirmary St.John",Health Centre,362.0,patients,St. John,2025-10-20,2019-03-12,13.041666666666666,-58.96888888888889,Good,True
9061.0,"Sanchez,-Robertson-and-Richards Clinic ST.",Polyclinic,156.0,capacity,St. Peter,2025-05-09,2020-07-21,12.92898,-59.08196,Follow-up 2023,True
25.0,"st. Cook, Harvey and Fleming Medical Center",Polyclinic,87.0,capacity,St. Joseph,2025-11-09,2023-03-08,13.04966,-58.95858,Follow-up 2023,True
9057.0,st. Calderon LLC,Clinic,300.0,patients,St. James,2019-11-04,2021-11-02,13.23501,-58.95858,Needs upgrade,False
9056.0,"Tran, Carter and Washington Clinic",Polyclinic,10.0,beds,St. Michael,2022-12-06,2022-09-16,12.70764,-59.24842,Reinspection due,True
9051.0,"Mcbride, Collins and White Polyclinic ST.",Hospital,359.0,units,St. John,2017-01-12,2025-02-07,13.01725,-58.96729,Needs upgrade,False
341.0,"St. Harper, Russell and Manning Polyclinic",Health Centre,102.0,beds,St. Lucy,2025-07-26,2020-11-09,12.87241,-59.07582,Reinspection due,True
340.0,Odom-Inc,Hospital,127.0,beds,Christ Church,2019-04-13,2020-04-21,12.81452,-59.20638,Needs upgrade,False
338.0,Moreno PLC hcruhC,Polyclinic,10.0,beds,Christ Church,2017-03-10,2024-09-25,13.00152,-59.00327,Good,False
9048.0,Bishop-Inc,Community Health Centre,418.0,beds,St. John,2018-11-13,2020-05-21,13.23531,-59.10401,Good,False
9044.0,"Hughes,-Castillo-and-Macdonald Hosp.",Community Health Centre,10.0,beds,Christ Church,2018-07-06,2020-07-06,13.21993,-59.05107,Reinspection due,False
9035.0,"Walker, Ortiz and Miller",Polyclinic,237.0,cots,Christ Church,2025-06-20,2023-01-20,12.93678,-59.08594,Needs upgrade,True
9033.0,Miller-Clark,Polyclinic,10.0,beds,St. George,2019-07-14,2019-10-07,12.84195,-58.76415,Good,False
,Mckinney-Fisher,Clinic,362.0,cots,St. Andrew,2024-12-20,2019-07-28,13.07005,-59.09905,Reinspection due,True
9028.0,Bernard-Inc Hosp.,Health Centre,140.0,capacity,St. George,2020-08-25,2023-01-31,13.18131,-58.8691,Good,False
,Mcgee-Soto Infirmary,Hospital,365.0,beds,St. Michael,2023-02-11,2021-11-19,12.88441,-59.23127,,True
9024.0,Robinson Group Medical Center christ,Clinic,320.0,beds,Christ Church,2024-10-23,2023-01-21,13.2254,-59.28595,Reinspection due,True
9022.0,Bernard-Clark Medical Center,Hospital,128.0,patients,St. John,2025-07-26,2022-11-12,12.996666666666666,-58.93444444444444,,True
9021.0,"Nichols, Castillo and Booth Health Centre",Health Centre,429.0,patients,St. John,2018-08-28,2020-02-18,12.963055555555554,-58.88194444444444,Follow-up 2023,False
9020.0,Ruiz-Gallagher Infirmary,Hospital,372.0,beds,St. Lucy,2021-07-14,2024-04-09,12.979444444444445,-59.08027777777778,Follow-up 2023,False
419008.0,Noble-Glenn ST.,Polyclinic,452.0,beds,St. Joseph,2024-07-26,2022-05-26,12.9922,-58.7839,Good,True
939.0,"Woodard,-Wilson-and-Norton Hospital",Health Centre,327.0,beds,Christ Church,2021-06-21,2025-08-23,13.24965,-58.9293,,False
,"Harris,-Rodriguez-and-Larson Clinic",Hospital,297.0,beds,St. George,2025-01-16,2019-03-23,13.02596,-58.75689,Reinspection due,True
,Maddox-Fox,Hospital,321.0,beds,St. Peter,2016-02-21,2023-08-13,13.22986,-58.73262,,False
,Bryant-Wilson Health Centre,Health Centre,449.0,capacity,Christ Church,2023-10-03,2025-09-12,12.90091,-59.26057,,False
,St. Underwood-Cain Infirmary,Hospital,446.0,cots,St. John,2017-09-11,2020-05-19,12.80195,-58.86734,Needs upgrade,False
95184.0,"Morris, Vargas and Hensley CHRIST",Clinic,231.0,units,Christ Church,2022-06-25,2024-02-16,12.88889,-58.95403,Needs upgrade,False
4459.0,Mack-Roberts Clinic,Clinic,350.0,capacity,St. Andrew,2018-08-19,2023-10-20,13.14926,-58.94187,Needs upgrade,False
8999.0,"Gill,-Hurst-and-Dougherty Health Centre",Health Centre,409.0,beds,St. Michael,2021-10-30,2025-07-29,13.20571,-59.1427,Good,False
8997.0,Harris-Brown Hosp.,Hospital,81.0,units,St. Lucy,2021-05-21,2025-10-26,13.18047,-59.16613,Needs upgrade,False
,Collins-Barrett Clinic St. John,Polyclinic,468.0,capacity,St. John,2024-12-23,2018-04-15,12.94877,-59.23933,Needs upgrade,True
370.0,"Montgomery, Taylor and Riggs",Clinic,367.0,beds,St. Peter,2023-08-25,2020-09-22,13.14215,-58.97339,,True
369.0,Taylor LLC Health Centre,Health Centre,429.0,cots,St. George,2021-08-18,2019-12-14,13.01465,-59.21881,Good,True
,Collins-Rogers,Health Centre,22.0,cots,St. Andrew,2017-06-26,2021-08-27,13.25165,-58.7213,,False
8991.0,St Lopez-Inc,Polyclinic,10.0,beds,St. Andrew,2022-01-29,2018-07-05,13.19931,-58.71242,Reinspection due,True
,"St. Zhang, Schultz and Davidson",Hospital,10.0,beds,St. Peter,2020-12-15,2023-01-11,13.25361111111111,-58.80583333333333,Reinspection due,False
8974.0,"Bowen,-Henderson-and-Frey Hosp.",Hospital,481.0,cots,St. Joseph,2022-09-21,2020-05-02,13.0725,-59.18083333333333,Good,True
8971.0,Bernard Ltd,Health Centre,333.0,patients,St. James,2018-10-17,2018-03-13,12.9259,-58.79759,Needs upgrade,True
,Norman-Group Polyclinic,Hospital,302.0,beds,St. Lucy,2022-10-20,2024-02-19,12.9925,-59.01583333333333,Reinspection due,False
77.0,"Sandoval,-Bell-and-Tyler Hosp.",Hospital,349.0,cots,St. George,2020-12-29,2019-04-02,12.72549,-58.95428,Follow-up 2023,True
,"Simpson,-Jenkins-and-Smith",Clinic,305.0,capacity,St. Michael,2016-05-17,2020-05-29,12.85956,-58.94339,Follow-up 2023,False
,"st. Mcclure, Harris and Summers",Health Centre,84.0,capacity,St. George,2018-11-07,2024-10-01,13.18011,-58.88407,Good,False
8954.0,"St Robinson, Morrow and Taylor Hospital",Hospital,10.0,beds,St. Andrew,2025-02-03,2025-11-02,13.26139,-58.9879,Reinspection due,False
8945.0,Chavez Inc,Community Health Centre,488.0,patients,St. John,2017-10-08,2020-02-01,13.095833333333333,-59.23277777777778,Follow-up 2023,False
,"St. Carr,-Bishop-and-Brown",Health Centre,460.0,cots,St. Andrew,2023-03-15,2025-12-10,13.05784,-59.04446,,False
8941.0,Atkins Inc Infirmary ST.,Polyclinic,174.0,cots,St. James,2022-09-23,2019-02-13,12.84919,-59.10997,,True
,"Pearson,-Ross-and-Harris Clinic",Clinic,10.0,beds,St. John,2023-02-17,2025-08-15,13.01242,-59.27142,Needs upgrade,False
,"Owen, Washington and Hayes St.Peter",Community Health Centre,68.0,beds,St. Peter,2022-08-25,2023-11-30,12.78716,-58.77166,Reinspection due,False
385.0,Wallace LLC Polyclinic,Health Centre,109.0,capacity,St. Peter,2020-10-08,2018-10-31,12.7154,-58.90931,Good,True
383.0,Smith Inc Polyclinic,Hospital,10.0,beds,St. Joseph,2017-11-19,2024-05-15,13.29661,-58.94283,Good,False
381.0,Gross-LLC Health Centre,Health Centre,77.0,beds,St. John,2022-03-24,2019-09-12,12.89431,-58.93042,Good,True
380.0,Mason-Wood Medical Center ST.,Health Centre,205.0,cots,St. Michael,2017-04-29,2019-03-13,13.180277777777777,-58.735,Follow-up 2023,False
,Owens-Rush Infirmary,Community Health Centre,374.0,capacity,Christ Church,2016-09-25,2018-05-23,12.84887,-59.03272,Needs upgrade,False
7075.0,"Johnson, Fowler and Lowe Polyclinic ST.",Hospital,424.0,capacity,St. Joseph,2019-12-04,2023-08-19,12.82147,-58.73284,Needs upgrade,False
,St. Henderson-PLC,Polyclinic,460.0,patients,St. Lucy,2022-07-25,2020-01-19,12.96951,-59.23221,,True
8936.0,St Crosby-Johnson Hosp.,Health Centre,172.0,beds,St. Lucy,2022-06-26,2021-07-09,12.96722,-58.9671,,True
,"Robinson, Walker and Saunders",Polyclinic,308.0,beds,St. Peter,2019-11-30,2019-03-03,12.924444444444443,-58.778888888888886,Follow-up 2023,True
8930.0,"Figueroa, Smith and Hernandez Medical Center",Clinic,386.0,cots,St. Andrew,2019-09-11,2021-07-05,12.81849,-58.7138,,False
4.0,Best Inc Hosp.,Health Centre,406.0,beds,St. Andrew,2019-08-30,2019-07-03,12.93,-59.007222222222225,,True
,King Group Infirmary,Clinic,336.0,patients,St. Andrew,2020-04-09,2024-07-08,12.75369,-59.05916,,False
8923.0,"Olson,-Norton-and-Molina",Hospital,265.0,units,St. Peter,2021-12-25,2022-01-31,13.27887,-59.15612,Needs upgrade,False
396.0,Alvarez-Anderson,Polyclinic,56.0,beds,St. Lucy,2024-07-16,2021-08-24,12.79446,-59.12168,Good,True
395.0,Moore-Fuller Hosp.,Health Centre,268.0,beds,Christ Church,2017-11-21,2023-04-14,13.074722222222222,-58.836666666666666,Needs upgrade,False
393.0,"Collins, Jenkins and Gates",Polyclinic,116.0,patients,St. Peter,2020-08-29,2023-05-11,13.18682,-59.14101,Needs upgrade,False
,"st. Long, King and Case Health Centre",Clinic,498.0,beds,St. Joseph,2016-01-20,2024-10-31,13.11827,-59.0902,Good,False
,"Graves, Porter and Burgess",Polyclinic,265.0,beds,St. John,2022-08-01,2023-09-22,12.84998,-58.81591,Reinspection due,False
,Rodriguez-and-Sons,Polyclinic,102.0,patients,St. Michael,2020-10-10,2020-11-13,12.97341,-58.97853,,False
8904.0,Stevens-Jackson Infirmary,Health Centre,269.0,cots,St. Lucy,2023-05-19,2018-08-13,13.21518,-58.77121,Reinspection due,True
8902.0,Stewart LLC ST.,Clinic,484.0,patients,St. John,2017-03-24,2021-04-05,12.96388,-59.1048,Needs upgrade,False
,st. Cruz and Sons Hospital,Health Centre,283.0,cots,St. Peter,2017-09-23,2019-06-14,12.86747,-59.27006,Good,False
763120.0,"St. Henry, Cox and Richards Clin.",Polyclinic,306.0,beds,St. Peter,2023-07-02,2018-02-12,12.751666666666667,-58.97222222222222,,True
763120.0,"St. Henry, Cox and Richards Clinic",Polyclinic,306.0,beds,St. Peter,2023-07-02,2018-02-12,12.751666666666667,-58.97222222222222,,True
8891.0,Barber PLC Hosp.,Polyclinic,281.0,patients,St. Joseph,2023-01-18,2018-02-02,13.11823,-58.89483,Follow-up 2023,True
8889.0,Morgan-Downs Infirmary NewLine,Clinic,243.0,cots,Christ Church,2018-01-04,2024-10-19,12.92585,-59.19387,,False
8888.0,St. Bishop-Klein,Clinic,328.0,beds,St. Michael,2018-03-02,2020-05-11,13.10217,-59.14729,Reinspection due,False
8885.0,Reyes-Glover,Clinic,10.0,beds,St. Andrew,2025-06-20,2020-07-23,13.28011,-58.70871,Good,True
8884.0,Garza-Weaver,Health Centre,187.0,beds,Christ Church,2021-12-15,2025-04-07,12.80728,-59.29519,Reinspection due,False
415.0,"Soto,-Lopez-and-Hampton Hosp.",Health Centre,155.0,beds,Christ Church,2017-02-06,2023-11-11,12.80398,-59.19116,Reinspection due,False
413.0,Gonzalez LLC Health Centre,Hospital,266.0,cots,St. Joseph,2023-06-26,2025-11-28,13.27928,-59.0986,,False
410.0,"Peterson, Wells and Berry",Clinic,121.0,beds,St. Peter,2020-08-17,2018-12-14,13.19612,-59.02761,Reinspection due,True
402.0,Wilson-Jones Christ NewLine,Polyclinic,66.0,patients,Christ Church,2019-03-15,2020-03-02,12.8722,-59.0944,Needs upgrade,False
8876.0,St Campbell PLC Medical Center,Health Centre,412.0,capacity,St. John,2019-10-24,2023-03-28,13.24984,-58.95192,,False
,Hughes Inc Clinic,Hospital,160.0,beds,St. James,2025-07-09,2019-07-24,12.94566,-59.11665,Reinspection due,True
8870.0,"St. Diaz, Coleman and Shaffer Health Centre",Hospital,224.0,units,St. George,2016-09-21,2019-02-09,12.81683,-58.85097,Needs upgrade,False
8868.0,Rogers LLC Polyclinic christ NewLine,Health Centre,241.0,beds,Christ Church,2018-04-23,2024-01-27,13.21635,-58.83957,Needs upgrade,False
8867.0,"Hood, Lopez and Cooper",Health Centre,63.0,units,St. Joseph,2023-11-27,2023-04-15,13.2337,-59.18809,Needs upgrade,True
8864.0,Ramirez-Krause Hosp.,Health Centre,427.0,capacity,St. John,2025-04-24,2019-01-13,12.95462,-59.10581,Good,True
979.0,"Hoffman, Novak and Schneider",Community Health Centre,419.0,cots,St. Joseph,2021-02-19,2022-02-08,13.084444444444445,-59.13805555555555,Needs upgrade,False
8850.0,Jones-Gibson ST.,Clinic,345.0,units,St. Michael,2023-07-12,2019-11-09,13.29843,-59.06466,,True
8836.0,Flores-Inc,Health Centre,80.0,units,St. Michael,2023-10-11,2023-04-27,12.993055555555555,-59.29861111111111,Needs upgrade,True
430.0,Smith-PLC Polyclinic hcruhC,Clinic,244.0,capacity,Christ Church,2018-02-17,2024-09-14,13.03076,-59.07953,Needs upgrade,False
428.0,"St. Parrish, Curtis and Martinez",Clinic,106.0,patients,St. Michael,2018-02-02,2024-11-28,12.73449,-59.17842,Good,False
426.0,Martinez-Grant ST.,Clinic,179.0,beds,St. James,2019-02-05,2020-01-12,13.0025,-58.74638888888889,Reinspection due,False
423.0,Young-Boyd Hospital St.John,Hospital,15.0,capacity,St. John,2022-05-10,2018-12-29,13.209444444444443,-58.70638888888889,,True
716.0,"Salazar, Jackson and Garcia Hosp. ST.",Clinic,75.0,beds,St. John,2022-05-12,2020-07-03,12.74611111111111,-59.11083333333333,Needs upgrade,True
,Gomez-Foster Infirmary,Polyclinic,458.0,beds,St. James,2021-03-27,2019-11-08,12.94469,-59.17082,Good,True
639.0,Harmon-LLC,Hospital,10.0,beds,St. Peter,2024-10-25,2024-07-26,12.7978,-59.22619,Reinspection due,True
8835.0,Ford-Clark,Clinic,194.0,cots,St. Peter,2023-01-02,2018-07-20,12.91983,-59.04151,Good,True
8833.0,"st. Chapman, Robinson and Morgan Hospital",Health Centre,442.0,beds,St. Michael,2021-08-30,2025-08-27,12.9209,-59.16046,Good,False
8829.0,"Peck, Ball and Cruz",Clinic,56.0,capacity,St. Michael,2019-07-13,2022-10-25,12.81151,-58.94774,Follow-up 2023,False
,"Luna, Weeks and Holt Medical Center ST.",Community Health Centre,218.0,cots,St. Joseph,2018-08-01,2025-10-16,12.72858,-58.85905,Good,False
,Wood-Pearson St.James,Clinic,10.0,beds,St. James,2016-08-21,2021-11-12,13.21252,-58.78768,Reinspection due,False
49378.0,"Adams,-Carr-and-Johnson Clin.",Clinic,284.0,beds,St. Joseph,2016-11-30,2021-11-03,12.75361111111111,-59.180277777777775,,False
49378.0,"Adams,-Carr-and-Johnson Clinic",Clinic,284.0,beds,St. Joseph,2016-11-30,2021-11-03,12.75361111111111,-59.180277777777775,,False
8814.0,Pennington-Ltd Polyclinic St. Michael,Health Centre,360.0,beds,St. Michael,2020-02-27,2018-03-04,13.26792,-58.97385,Good,True
8810.0,"Montes, Smith and Johnson Health Centre",Health Centre,162.0,beds,St. Peter,2023-11-18,2018-11-15,13.13841,-59.27433,Good,True
20.0,Mcbride-Lawson,Clinic,207.0,beds,St. James,2018-10-22,2019-08-30,12.843333333333334,-58.754444444444445,Good,False
8807.0,Young-Smith Infirmary,Health Centre,261.0,capacity,St. Lucy,2019-07-20,2022-04-14,13.05518,-59.08662,Good,False
443.0,Walton Inc St.James,Health Centre,118.0,beds,St. James,2016-10-19,2022-11-26,13.2993,-59.10049,Needs upgrade,False
,Robinson-Barton Polyclinic NewLine,Health Centre,238.0,units,St. Peter,2021-07-23,2019-12-16,13.072222222222223,-59.0425,Needs upgrade,True
33.0,Rodriguez-Inc Medical Center,Hospital,273.0,beds,St. Lucy,2024-07-16,2018-01-22,12.81057,-59.21756,Follow-up 2023,True
8806.0,"St. Rodriguez,-Holden-and-Salas Infirmary",Polyclinic,458.0,beds,St. John,2017-08-24,2018-04-05,12.97111,-58.70428,,False
,St. Villa-Green Medical Center,Clinic,10.0,beds,St. Joseph,2023-09-20,2018-10-21,13.111666666666666,-59.03583333333333,Needs upgrade,True
588635.0,"St. Singh, Burns and Mclean Hosp. NewLine",Polyclinic,3.0,beds,St. Andrew,2023-07-09,2018-05-12,12.81747,-59.14658,Reinspection due,True
982.0,Golden-and-Sons Hosp.,Health Centre,270.0,units,St. James,2016-09-02,2025-03-19,12.81515,-58.8702,Reinspection due,False
,Steele-and-Sons ST.,Health Centre,402.0,beds,St. Peter,2019-06-03,2022-09-26,12.84614,-59.16007,,False
8781.0,"Terry, Lin and Bennett Clinic St.Michael",Polyclinic,8.0,beds,St. Michael,2025-03-16,2025-07-07,12.76483,-59.16766,,False
8780.0,"Mcintosh, Murray and Stuart Hosp.",Polyclinic,379.0,cots,Christ Church,2017-10-15,2022-10-09,12.9967,-59.26163,,False
8778.0,Johnson-Ltd Polyclinic,Clinic,10.0,beds,St. Andrew,2018-09-25,2020-01-09,12.8072,-58.85204,Follow-up 2023,False
,"Mcbride, Stevens and Stevens Hospital ST.",Polyclinic,11.0,cots,St. Andrew,2024-07-22,2025-06-12,13.17494,-59.17101,Follow-up 2023,False
,Anderson-Thompson Clinic,Health Centre,482.0,patients,St. George,2018-11-20,2023-10-13,13.1073,-58.72728,Good,False
,"Robinson,-Wright-and-Watts Clinic",Health Centre,31.0,patients,Christ Church,2022-04-09,2023-04-01,12.81647,-58.91816,Needs upgrade,False
8770.0,Miller-Torres Health Centre,Health Centre,157.0,beds,St. Joseph,2018-02-07,2023-10-31,12.99195,-58.76112,Good,False
651.0,"St Christensen, Oconnor and Moses Medical Center",Hospital,309.0,units,St. Andrew,2018-09-03,2019-04-06,12.72524,-59.09928,Follow-up 2023,False
,Schneider Ltd Health Centre,Community Health Centre,292.0,beds,St. James,2016-09-23,2018-10-14,12.87901,-59.16228,Reinspection due,False
460.0,"Jones, Black and Brown",Health Centre,255.0,beds,St. George,2020-09-04,2018-07-31,13.03075,-58.72001,Follow-up 2023,True
459.0,St. Ray-Perez Clinic,Health Centre,225.0,cots,St. Michael,2024-07-06,2024-04-14,12.7857,-58.77835,Follow-up 2023,True
457.0,Fisher-Morrow,Health Centre,263.0,beds,Christ Church,2016-01-22,2021-04-16,12.97418,-58.83004,Needs upgrade,False
453.0,St Acevedo-Carr Medical Center,Health Centre,100.0,patients,St. Andrew,2020-02-01,2021-09-07,12.95591,-58.99932,Reinspection due,False
449.0,"St. Lawson, Petersen and Pitts Health Centre",Clinic,35.0,beds,St. John,2023-11-28,2025-08-21,13.01351,-59.27673,,False
446.0,"St. Cantu, Forbes and Andrade",Hospital,157.0,patients,St. James,2019-01-04,2022-10-17,12.83876,-59.16163,Needs upgrade,False
8759.0,Chandler-Duke,Health Centre,45.0,beds,St. Joseph,2025-05-02,2020-09-11,13.22445,-58.7957,Follow-up 2023,True
8757.0,Lee-Fitzpatrick,Polyclinic,179.0,cots,St. Lucy,2025-02-19,2023-04-10,12.81792,-59.18814,Good,True
49899.0,"Brooks,-King-and-Thomas",Polyclinic,86.0,patients,St. John,2023-07-31,2021-11-13,13.04824,-59.24731,Reinspection due,True
,Bishop-Lester,Health Centre,34.0,beds,St. George,2022-11-25,2025-09-19,12.91688,-58.75224,Reinspection due,False
8752.0,St. Adams LLC,Polyclinic,10.0,beds,St. Michael,2023-10-18,2020-06-06,12.92979,-59.20936,Follow-up 2023,True
7121.0,"Pugh, Johnson and Lawson Polyclinic",Clinic,342.0,capacity,St. Peter,2020-06-09,2025-02-22,13.22619,-58.80336,,False
469.0,Gray Ltd Polyclinic,Clinic,165.0,beds,St. Joseph,2023-04-28,2020-04-02,12.916666666666666,-58.72777777777778,Needs upgrade,True
464.0,"Thompson, Farrell and Chambers ST.",Clinic,425.0,beds,St. George,2022-11-07,2025-06-29,12.83099,-59.25145,Follow-up 2023,False
,Andrews-Harrison Health Centre,Clinic,354.0,units,St. Michael,2022-01-18,2018-03-31,13.20364,-59.15607,Reinspection due,True
8741.0,"St. Kim,-Vega-and-Garcia Clinic",Health Centre,65.0,beds,St. John,2025-05-29,2020-09-19,12.70027,-59.24707,Needs upgrade,True
,"st. Anderson, Mitchell and Irwin Health Centre",Community Health Centre,467.0,beds,St. Michael,2023-06-16,2023-03-28,12.83286,-58.94521,,True
8737.0,Parker-Jennings,Health Centre,298.0,beds,St. George,2019-11-16,2020-09-18,13.138055555555555,-58.91777777777777,Needs upgrade,False
31315.0,"Dunlap, Mcneil and Fernandez ChristChurch",Health Centre,458.0,beds,Christ Church,2023-09-29,2020-10-26,12.73828,-59.20173,,True
8729.0,St. George-Morgan,Health Centre,174.0,units,St. Joseph,2016-07-07,2019-05-27,13.10206,-58.79766,Reinspection due,False
8725.0,Miller-Meyer Health Centre,Polyclinic,52.0,beds,St. James,2022-11-10,2024-03-30,12.99096,-59.17052,,False
,"Thompson, Taylor and Jones Polyclinic christ",Hospital,397.0,patients,Christ Church,2024-01-26,2020-09-23,12.8644,-58.98484,Needs upgrade,True
1076.0,Smith-Johnson Polyclinic,Clinic,483.0,beds,St. Andrew,2022-09-02,2021-05-30,12.79,-58.88777777777778,Reinspection due,True
8714.0,St. Roberson-Garrett,Hospital,319.0,units,St. Michael,2021-11-22,2021-06-10,13.227777777777778,-59.13861111111111,Good,True
485.0,st. Owen-Franco,Community Health Centre,365.0,units,St. James,2021-10-01,2018-12-15,12.91603,-59.11469,,True
,St Howell PLC Polyclinic,Clinic,43.0,capacity,St. Andrew,2018-07-15,2019-01-07,13.00492,-58.83439,,False
482.0,St. Cooper-PLC Health Centre,Health Centre,29.0,beds,St. George,2017-12-12,2019-12-17,13.131388888888889,-58.98972222222222,Follow-up 2023,False
481.0,Singh LLC Health Centre,Polyclinic,414.0,beds,St. Michael,2019-09-07,2021-03-03,12.87891,-59.07313,Good,False
479.0,St Maldonado and Sons Polyclinic,Health Centre,289.0,beds,St. Lucy,2021-04-30,2018-12-06,12.91525,-59.03459,,True
8708.0,Simmons LLC St.George,Polyclinic,10.0,beds,St. George,2019-09-10,2022-12-07,13.15439,-58.98469,Reinspection due,False
8700.0,"St. Collins, Romero and Peterson",Health Centre,10.0,beds,St. John,2018-02-13,2019-02-01,13.06388888888889,-58.88527777777778,,False
8699.0,Johnson-Smith Health Centre Christ,Health Centre,315.0,capacity,Christ Church,2019-11-11,2025-04-07,12.72321,-59.29314,Reinspection due,False
8696.0,Blackburn PLC,Hospital,407.0,cots,St. Lucy,2020-12-13,2025-07-27,12.81869,-59.10871,,False
8694.0,Horton LLC Infirmary,Health Centre,10.0,beds,St. James,2016-07-11,2019-03-17,12.82606,-58.91122,Reinspection due,False
8692.0,Mckinney-Bradford Medical Center,Health Centre,104.0,beds,Christ Church,2017-07-02,2025-07-23,13.01136,-59.05428,Needs upgrade,False
8689.0,Glenn-Smith Polyclinic,Health Centre,475.0,beds,St. Andrew,2018-07-31,2019-01-21,12.77433,-58.95007,Reinspection due,False
,Gilbert Group Infirmary,Health Centre,321.0,beds,St. Michael,2023-06-19,2019-12-03,13.14939,-59.18775,Follow-up 2023,True
8680.0,St Brown Inc Health Centre,Health Centre,178.0,capacity,St. Peter,2024-07-09,2025-08-19,13.11526,-58.86844,Reinspection due,False
500.0,St Castaneda Ltd,Hospital,303.0,units,St. Michael,2019-08-05,2024-07-19,12.73864,-58.99569,Follow-up 2023,False
499.0,Salazar-Smith,Health Centre,318.0,beds,St. George,2023-02-14,2025-08-06,12.85739,-59.29607,Needs upgrade,False
498.0,"Jensen, Smith and Kelly",Health Centre,10.0,beds,St. James,2025-06-07,2021-04-02,12.994166666666667,-58.7625,,True
497.0,Webster Inc,Community Health Centre,269.0,beds,St. Joseph,2022-08-27,2019-04-09,13.24162,-59.16479,Follow-up 2023,True
496.0,"Ball, Acosta and Juarez Hospital",Health Centre,424.0,beds,St. Joseph,2018-03-16,2022-01-29,13.29571,-59.27801,Good,False
,Harris-Pope Clinic ST.,Hospital,458.0,beds,St. John,2017-11-14,2025-04-06,13.145277777777777,-58.878055555555555,Follow-up 2023,False
8677.0,St Campbell-Vasquez,Clinic,469.0,capacity,St. Joseph,2019-09-27,2025-12-20,13.2332,-58.7448,Follow-up 2023,False
8674.0,st. Pearson PLC Clinic,Polyclinic,326.0,capacity,St. James,2017-12-07,2019-11-15,13.03441,-58.72126,Needs upgrade,False
8673.0,St. Gallagher-Gates Hosp.,Clinic,487.0,cots,St. James,2017-12-26,2024-02-12,13.294722222222221,-58.82055555555556,,False
,Bush-Roy Hospital,Clinic,496.0,cots,St. Peter,2016-11-06,2018-02-24,12.87477,-59.09204,Follow-up 2023,False
,Jordan-Shepard Clin.,Community Health Centre,153.0,beds,St. Michael,2021-09-22,2023-10-25,12.9125,-59.234722222222224,,False
,Jordan-Shepard Clinic,Community Health Centre,153.0,beds,St. Michael,2021-09-22,2023-10-25,12.9125,-59.234722222222224,,False
8660.0,St. Rush-Martinez Hosp.,Hospital,384.0,capacity,St. John,2024-12-01,2020-09-17,12.9543,-58.99895,Reinspection due,True
8660.0,St. Rush-Martinez Hospital,Hospital,384.0,capacity,St. John,2024-12-01,2020-09-17,12.9543,-58.99895,Reinspection due,True
7908.0,"Pena, Cortez and Freeman",Clinic,248.0,patients,St. John,2022-10-10,2021-10-17,13.20909,-59.18943,Good,True
8655.0,St. Castaneda Inc,Health Centre,293.0,beds,St. Peter,2021-02-19,2019-07-12,12.87146,-58.74206,Follow-up 2023,True
8654.0,st. Fletcher-LLC Hosp.,Health Centre,325.0,capacity,St. Michael,2024-04-17,2020-05-16,12.7563,-58.78933,Needs upgrade,True
43171.0,Schneider Ltd,Health Centre,10.0,beds,St. James,2022-03-21,2022-04-25,13.12923,-58.84085,,False
,"Mullen, Larsen and Patterson Infirmary",Hospital,354.0,capacity,Christ Church,2022-12-20,2022-11-26,12.99522,-59.10407,Follow-up 2023,True
58569.0,Schmidt LLC Health Centre St. Michael,Clinic,10.0,beds,St. Michael,2022-07-10,2023-07-06,13.05239,-58.98384,Good,False
,Wilkerson PLC,Health Centre,461.0,patients,St. George,2017-11-21,2022-03-22,12.80849,-59.09767,Reinspection due,False
,Friedman-Marsh,Polyclinic,458.0,capacity,St. Lucy,2016-11-03,2018-03-23,12.97269,-59.03805,Good,False
,Kim-Moss Infirmary,Polyclinic,487.0,beds,St. Peter,2022-12-09,2018-11-07,13.00529,-58.81675,Follow-up 2023,True
8630.0,Rose Inc Clinic,Clinic,70.0,beds,St. Andrew,2022-08-20,2020-07-02,12.76918,-58.87404,Reinspection due,True
8627.0,Perez-Garcia,Health Centre,231.0,capacity,St. Peter,2022-09-12,2021-12-15,12.768055555555556,-58.93888888888888,Needs upgrade,True
,St Blackburn and Sons Health Centre,Hospital,123.0,capacity,St. Michael,2023-10-19,2025-01-12,12.97668,-59.26702,Reinspection due,False
8615.0,"Mcgrath, Hicks and Mitchell Health Centre",Clinic,255.0,cots,Christ Church,2025-05-21,2023-11-12,13.02551,-59.08154,Follow-up 2023,True
8614.0,"Mcdonald,-Montgomery-and-George Hosp. CHRIST",Clinic,472.0,cots,Christ Church,2018-02-06,2021-03-18,13.23965,-59.07599,Reinspection due,False
8607.0,Hernandez PLC Infirmary ST. NewLine,Clinic,256.0,cots,St. Michael,2016-08-19,2025-08-15,12.90006,-58.78461,Good,False
2.0,Conner PLC Medical Center,Community Health Centre,333.0,capacity,St. John,2022-03-11,2021-11-28,12.97315,-59.17929,Follow-up 2023,True
528.0,"Meadows, Morse and Joyce Clinic",Clinic,450.0,units,Christ Church,2025-03-16,2018-10-11,12.77166,-58.95703,Needs upgrade,True
524.0,"Mcdaniel,-Baker-and-Bartlett Infirmary",Clinic,10.0,beds,St. Michael,2017-03-30,2019-03-03,12.90289,-58.92257,Good,False
523.0,Williams-Duarte,Hospital,396.0,beds,St. Peter,2023-01-29,2018-03-18,12.81055,-59.2163,Reinspection due,True
522.0,Dennis Inc,Health Centre,329.0,patients,St. Lucy,2023-11-03,2025-12-24,13.06078,-59.1193,Good,False
,St Simon-and-Sons,Community Health Centre,402.0,cots,St. Joseph,2025-01-25,2023-12-04,12.860555555555555,-58.9075,Needs upgrade,True
,Compton-Ltd Infirmary St.James,Polyclinic,285.0,units,St. James,2021-05-21,2018-01-12,12.82665,-59.00396,Reinspection due,True
8590.0,St Banks-Fletcher,Polyclinic,254.0,units,St. Joseph,2019-07-22,2025-11-12,13.21361111111111,-58.869166666666665,Reinspection due,False
8588.0,"Buchanan, Rodriguez and Hernandez",Polyclinic,158.0,patients,St. Peter,2017-08-02,2020-11-13,13.195,-59.06222222222222,Good,False
,Gonzalez-Christian Hospital,Polyclinic,374.0,beds,Christ Church,2020-05-23,2023-11-14,12.87374,-58.90095,Follow-up 2023,False
8585.0,"Conner, Boyd and Fields Hospital ST.",Community Health Centre,403.0,beds,St. George,2022-04-24,2019-10-31,13.19969,-59.19042,Follow-up 2023,True
8583.0,Anderson Ltd Polyclinic,Clinic,47.0,patients,St. James,2016-12-07,2024-06-08,13.140277777777778,-59.02638888888889,Follow-up 2023,False
,"st. Mcintosh, Ball and Cameron Medical Center",Clinic,406.0,units,St. George,2023-10-22,2025-10-07,13.18513,-58.73889,Needs upgrade,False
8577.0,Goodman Ltd,Community Health Centre,376.0,units,Christ Church,2023-07-12,2024-06-24,13.293055555555556,-58.78805555555555,,False
8570.0,"Schaefer, Martin and Anderson Hospital ycuL",Health Centre,372.0,beds,St. Lucy,2023-04-19,2020-05-27,13.2347,-58.75635,Follow-up 2023,True
543.0,Russo-Patrick Polyclinic Christ,Health Centre,222.0,capacity,Christ Church,2023-02-02,2025-11-22,12.99049,-59.15435,Follow-up 2023,False
,"St. Rice, Bartlett and Thompson Clinic",Health Centre,408.0,capacity,St. Lucy,2021-06-06,2024-08-08,13.10836,-59.15079,,False
,"Turner,-Logan-and-Decker Infirmary CHRIST",Health Centre,306.0,patients,Christ Church,2022-01-27,2022-09-19,12.846666666666668,-59.006388888888885,Reinspection due,False
8569.0,"Sanchez, Berry and Caldwell ST.",Community Health Centre,300.0,beds,St. Lucy,2023-04-03,2022-05-31,13.09329,-58.98291,Follow-up 2023,True
,"Cochran, Williams and Medina Medical Center",Health Centre,351.0,beds,St. Andrew,2025-04-14,2019-05-21,12.808333333333334,-58.79333333333333,Follow-up 2023,True
8565.0,"Flores, Wolfe and Robinson Infirmary",Polyclinic,55.0,patients,St. Joseph,2018-04-18,2019-08-24,12.958333333333332,-58.921388888888885,Good,False
8563.0,"st. Jones, Calhoun and Henderson Clinic",Hospital,294.0,patients,St. John,2024-08-01,2025-03-12,12.81124,-59.08295,Good,False
8561.0,Mitchell Ltd Medical Center,Hospital,397.0,capacity,St. James,2023-10-23,2023-11-10,12.71147,-59.04995,Reinspection due,False
8556.0,Dickerson-Wallace ST.,Health Centre,426.0,patients,St. Peter,2023-01-14,2020-06-20,13.07,-59.276666666666664,Reinspection due,True
,St. Williams-Ltd Medical Center,Clinic,74.0,patients,St. John,2020-10-04,2018-10-12,12.98748,-58.85684,Reinspection due,True
8551.0,Christian-Bates Health Centre,Health Centre,38.0,cots,St. John,2024-10-20,2025-03-20,12.73837,-59.23591,Follow-up 2023,False
8543.0,St. Cervantes Ltd Hospital,Community Health Centre,425.0,units,St. Michael,2023-09-01,2023-02-07,13.19508,-58.97564,Reinspection due,True
8541.0,"st. Tran, Johnson and White Clin.",Community Health Centre,21.0,beds,St. Michael,2021-04-16,2022-05-31,12.905833333333334,-58.73027777777778,Reinspection due,False
8541.0,"st. Tran, Johnson and White Clinic",Community Health Centre,21.0,beds,St. Michael,2021-04-16,2022-05-31,12.905833333333334,-58.73027777777778,Reinspection due,False
8540.0,"Webb, Smith and Burnett Polyclinic ST.",Polyclinic,30.0,patients,St. Peter,2020-12-26,2025-07-12,12.779722222222222,-59.04277777777778,Follow-up 2023,False
,"Torres, Garcia and Brown Polyclinic",Health Centre,10.0,beds,St. Michael,2021-01-02,2020-01-14,12.74517,-58.88264,Needs upgrade,True
8536.0,Lopez Ltd,Community Health Centre,148.0,beds,Christ Church,2016-07-24,2025-03-06,13.201944444444443,-58.70166666666667,,False
8535.0,Adkins-Allen Clinic,Health Centre,48.0,units,St. George,2025-11-21,2024-07-20,13.1431,-58.83453,Good,True
8533.0,"Schneider,-Madden-and-Brown",Clinic,325.0,beds,St. Andrew,2021-10-14,2019-09-22,12.87462,-59.13627,Follow-up 2023,True
8530.0,Ward-Mosley Hosp.,Hospital,129.0,cots,St. Michael,2023-03-16,2024-01-12,13.296666666666667,-59.09055555555556,,False
558.0,"Lara, Wilson and Norris",Health Centre,290.0,units,St. Peter,2016-03-20,2025-08-22,13.18384,-58.79665,Follow-up 2023,False
555.0,Sandoval-Perry Polyclinic,Health Centre,10.0,beds,St. Lucy,2020-01-30,2020-06-04,12.760555555555555,-59.245555555555555,Reinspection due,False
554.0,"Lyons, Brooks and Patel Infirmary",Polyclinic,140.0,cots,Christ Church,2019-05-18,2021-04-26,13.26457,-59.2644,Good,False
552.0,"Gonzalez, Robertson and Vargas Hosp.",Clinic,347.0,beds,St. Michael,2020-06-12,2025-12-12,13.06783,-58.91737,,False
547.0,St. Lee-Rodriguez Medical Center,Clinic,110.0,capacity,St. James,2024-10-08,2021-05-20,13.12833,-58.70279,Good,True
546.0,"St. Peters, Mendez and Bauer Infirmary",Health Centre,336.0,beds,St. Lucy,2021-03-25,2025-12-22,13.1747,-59.11875,Good,False
8528.0,"Shields, Hughes and Gallagher",Polyclinic,10.0,beds,St. Michael,2017-12-26,2020-10-19,13.16617,-59.13061,,False
8525.0,Jones-Taylor,Health Centre,82.0,beds,St. Peter,2016-09-04,2024-11-18,13.28725,-59.18982,Good,False
,"Hartman,-Cooper-and-Lopez Infirmary",Community Health Centre,10.0,beds,Christ Church,2016-12-22,2022-08-04,12.95017,-58.77201,Good,False
712.0,Lewis-Nelson,Health Centre,22.0,beds,St. John,2019-03-25,2024-09-15,13.279166666666667,-58.870555555555555,,False
,"St Martinez,-Johnson-and-Webb",Health Centre,172.0,beds,St. John,2025-06-17,2025-05-18,12.75299,-58.99088,Follow-up 2023,True
,Wagner Group Polyclinic St. Joseph NewLine,Health Centre,10.0,beds,St. Joseph,2025-09-07,2019-03-29,12.771944444444445,-58.98694444444445,Needs upgrade,True
571.0,St. White-Ltd Infirmary,Health Centre,49.0,beds,St. George,2018-07-13,2024-12-23,13.172222222222222,-58.946666666666665,Reinspection due,False
1719.0,Jones-Campbell Clinic,Clinic,71.0,cots,St. John,2019-10-18,2021-05-22,13.09831,-59.04873,Follow-up 2023,False
8512.0,"Chan, Jarvis and Collier ChristChurch",Health Centre,55.0,cots,Christ Church,2018-03-03,2024-10-05,12.92511,-59.2328,,False
8509.0,"Coleman,-Morris-and-Johnson Hosp. ST.",Polyclinic,455.0,beds,St. George,2025-12-15,2018-05-04,13.21718,-59.24347,,True
18.0,St. Yu Ltd Clinic,Health Centre,122.0,patients,St. Michael,2018-05-09,2019-12-25,13.16799,-58.83828,Reinspection due,False
8506.0,Jackson-Baxter Medical Center,Polyclinic,223.0,beds,St. George,2018-12-27,2025-04-19,12.725,-59.068333333333335,,False
8504.0,Nguyen Group Hosp. ST.,Hospital,1.0,capacity,St. Andrew,2016-04-12,2025-05-11,13.11415,-59.26701,Reinspection due,False
8503.0,Christensen and Sons Hosp. NewLine,Clinic,10.0,beds,Christ Church,2023-03-31,2021-06-19,12.85911,-58.99305,,True
,Jackson-Lewis Clinic,Health Centre,129.0,beds,St. James,2023-08-11,2024-04-01,12.725,-58.9225,Needs upgrade,False
8496.0,"Levine, Thompson and Morales Polyclinic",Community Health Centre,313.0,capacity,St. Joseph,2025-11-14,2025-08-20,13.13622,-58.71419,Follow-up 2023,True
691.0,Foster-Knox Polyclinic Christ,Polyclinic,189.0,cots,Christ Church,2018-02-11,2019-03-05,12.966388888888888,-58.925555555555555,Needs upgrade,False
8491.0,Friedman-Knight,Hospital,466.0,beds,St. George,2018-05-15,2018-12-09,13.1036,-58.95369,Follow-up 2023,False
8489.0,"Morales, Mccullough and Schroeder Medical Center",Hospital,79.0,beds,St. Michael,2019-11-23,2023-07-11,12.86653,-59.02622,,False
588.0,"St Scott, Wilkerson and Jensen Hosp.",Health Centre,142.0,beds,St. Peter,2023-07-19,2025-06-09,13.0125,-58.81638888888889,Needs upgrade,False
583.0,Klein Group Medical Center,Hospital,132.0,beds,St. James,2021-04-01,2021-11-07,12.817222222222222,-59.13305555555556,Follow-up 2023,False
577.0,"Bowen, Maddox and Thompson Hosp.",Hospital,437.0,beds,St. George,2018-11-10,2021-09-13,13.20568,-59.26268,Follow-up 2023,False
,Frank-Freeman Polyclinic,Clinic,369.0,units,St. John,2025-06-03,2020-08-31,13.13756,-59.28358,Follow-up 2023,True
8466.0,St. Villa Group,Hospital,121.0,units,St. Lucy,2025-11-05,2024-06-20,12.917777777777777,-59.280277777777776,Follow-up 2023,True
6697.0,Roberts-Miller Medical Center,Clinic,304.0,beds,St. Michael,2018-05-19,2022-10-03,12.71896,-59.2347,Reinspection due,False
8451.0,St. Shaffer-Inc Hospital,Health Centre,397.0,units,St. George,2023-05-07,2022-04-10,12.70428,-58.819,Reinspection due,True
8450.0,"Herring, Hughes and Williams Clin.",Health Centre,242.0,beds,St. James,2022-02-03,2018-05-04,12.96236,-58.9152,Needs upgrade,True
8450.0,"Herring, Hughes and Williams Clinic",Health Centre,242.0,beds,St. James,2022-02-03,2018-05-04,12.96236,-58.9152,Needs upgrade,True
,Boyd LLC Hosp.,Health Centre,270.0,units,St. John,2023-04-17,2024-09-09,13.28888888888889,-59.24527777777778,Needs upgrade,False
,Boyd LLC Hospital,Health Centre,270.0,units,St. John,2023-04-17,2024-09-09,13.28888888888889,-59.24527777777778,Needs upgrade,False
8436.0,Smith-LLC ST.,Community Health Centre,10.0,beds,St. George,2025-03-12,2021-05-29,12.70184,-59.28253,Follow-up 2023,True
996615.0,Christensen-Alvarado Hosp.,Health Centre,396.0,beds,St. Lucy,2019-05-14,2018-01-10,12.74527,-58.90262,Follow-up 2023,True
8430.0,Mitchell-Inc Clin. ST.,Clinic,69.0,beds,St. George,2019-09-18,2018-01-22,12.95998,-59.05953,Reinspection due,True
8430.0,Mitchell-Inc Clinic ST.,Clinic,69.0,beds,St. George,2019-09-18,2018-01-22,12.95998,-59.05953,Reinspection due,True
,Morrison-Vasquez ST.,Clinic,13.0,beds,St. George,2017-05-22,2024-12-15,12.76513,-58.87506,Follow-up 2023,False
,St. Williams-PLC,Community Health Centre,493.0,beds,St. John,2019-07-11,2018-05-26,13.2108,-59.15529,Follow-up 2023,True
598.0,Taylor Group St. George,Hospital,491.0,units,St. George,2024-09-19,2019-11-19,12.93758,-58.70477,Follow-up 2023,True
,"Gray,-Huffman-and-Jimenez Clinic",Hospital,10.0,beds,Christ Church,2018-02-27,2025-11-11,13.16595,-58.8295,Needs upgrade,False
592.0,"Mccall,-Burns-and-Price Health Centre",Clinic,35.0,patients,St. Joseph,2023-08-17,2021-11-26,12.71071,-59.20533,Needs upgrade,True
,Taylor-Ruiz,Hospital,253.0,beds,St. James,2024-11-14,2023-06-17,13.169166666666666,-58.83388888888889,Reinspection due,True
8427.0,Hampton Ltd Polyclinic,Health Centre,240.0,patients,Christ Church,2020-04-16,2021-09-08,13.21187,-58.98682,Needs upgrade,False
,Marshall-Harrison Clinic,Hospital,341.0,capacity,St. James,2022-12-11,2022-07-26,13.28319,-59.06098,Reinspection due,True
8424.0,"Owens, Barrera and Wright Health Centre",Polyclinic,395.0,beds,St. Joseph,2021-10-18,2025-03-29,13.23518,-58.96714,Follow-up 2023,False
8420.0,st. Estrada Group,Health Centre,36.0,capacity,St. Lucy,2020-03-24,2025-12-15,13.01779,-59.05559,Good,False
,"Jackson, Solis and Carey Health Centre",Health Centre,257.0,capacity,St. James,2025-03-08,2018-06-11,12.92581,-58.72304,Needs upgrade,True
8416.0,Nguyen-Waters,Clinic,181.0,capacity,St. Joseph,2019-06-06,2018-03-11,12.85776,-59.0444,Needs upgrade,True
8413.0,Barnes-Silva,Community Health Centre,10.0,beds,St. Lucy,2022-03-23,2018-11-06,12.99034,-58.94944,Follow-up 2023,True
,"St. Reeves, White and Haney Hosp.",Polyclinic,10.0,beds,St. John,2023-04-01,2023-03-24,13.10469,-59.20948,,True
8407.0,Walton-Simon Clinic,Hospital,10.0,beds,St. John,2023-01-06,2024-07-01,12.84586,-59.03506,Good,False
8399.0,"St. Smith, Williams and Wagner Clinic",Clinic,294.0,patients,St. John,2025-12-11,2021-11-07,13.14472222222222,-59.14194444444444,Reinspection due,True
615.0,"Ramirez, Marquez and Simpson",Health Centre,10.0,beds,Christ Church,2019-07-06,2024-09-14,13.17178,-59.05732,,False
611.0,"Glass,-Fisher-and-Brown Medical Center",Health Centre,182.0,patients,St. James,2020-03-08,2018-06-28,12.93692,-58.84289,Follow-up 2023,True
3297.0,Smith-Flores Clinic ChristChurch,Health Centre,499.0,beds,Christ Church,2019-10-08,2019-07-08,12.919444444444444,-58.72555555555556,Good,True
605.0,Smith-Hurst Health Centre,Clinic,319.0,beds,Christ Church,2025-01-01,2022-03-27,13.00704,-59.19673,Follow-up 2023,True
7966.0,Jones LLC,Clinic,461.0,units,Christ Church,2019-08-07,2024-07-01,12.87138,-58.83072,Follow-up 2023,False
8394.0,Harrison-Figueroa St. Michael,Health Centre,491.0,beds,St. Michael,2022-12-13,2019-12-13,12.91569,-58.72821,Needs upgrade,True
8391.0,"Nichols, Chapman and Hawkins Health Centre",Hospital,10.0,beds,Christ Church,2016-11-14,2022-10-31,12.96781,-59.28666,Good,False
24192.0,Huff-Petersen St. Joseph,Health Centre,231.0,beds,St. Joseph,2022-06-12,2019-01-18,12.769166666666667,-58.92805555555555,Needs upgrade,True
8378.0,Holden-Peters Health Centre,Health Centre,233.0,beds,St. George,2022-06-06,2022-10-05,13.228333333333333,-58.94916666666666,Needs upgrade,False
8362.0,St. Garcia-and-Sons Medical Center,Hospital,11.0,units,St. Michael,2019-07-09,2024-11-30,13.16119,-58.83436,Reinspection due,False
8351.0,Miller-Walker,Health Centre,281.0,beds,St. Peter,2018-11-24,2020-02-24,12.958333333333332,-58.768055555555556,Needs upgrade,False
8350.0,"Clarke, Baker and Thompson Health Centre",Community Health Centre,29.0,beds,St. George,2020-07-26,2019-07-28,12.76128,-59.03129,Needs upgrade,True
8341.0,"Morrison,-Lawson-and-Young Polyclinic St.James",Polyclinic,392.0,patients,St. James,2018-09-26,2020-02-12,13.16246,-59.13569,Good,False
8335.0,"st. Jones, Frey and Fernandez Polyclinic",Health Centre,370.0,units,St. Peter,2016-03-29,2019-07-04,12.75575,-58.70429,Good,False
8332.0,"Valentine, Miller and Green St. George",Health Centre,428.0,beds,St. George,2017-06-28,2023-03-18,13.09463,-59.00101,Reinspection due,False
629.0,st. Peters-Lynch Health Centre,Hospital,3.0,cots,St. George,2022-01-03,2018-06-21,12.73851,-58.79216,Follow-up 2023,True
627.0,Montgomery and Sons Clinic,Health Centre,169.0,units,St. James,2016-05-23,2024-01-31,12.84704,-58.73143,Reinspection due,False
618.0,"Huffman, Miller and Hoffman",Clinic,69.0,beds,St. Michael,2020-10-03,2019-03-06,13.21184,-59.20027,,True
8327.0,Marshall Group Hospital,Polyclinic,38.0,beds,St. James,2021-04-25,2022-06-01,13.069444444444445,-59.111111111111114,Follow-up 2023,False
8324.0,Miller-Johnson Infirmary hcruhC,Polyclinic,4.0,cots,Christ Church,2018-05-11,2025-03-10,13.24298,-59.04107,Needs upgrade,False
8322.0,Mendez-LLC St.George,Polyclinic,263.0,patients,St. George,2016-06-22,2021-05-27,13.277222222222223,-59.23527777777778,,False
,st. Gibbs PLC Infirmary,Clinic,216.0,capacity,St. Michael,2020-09-09,2023-10-17,12.820277777777777,-59.13583333333333,,False
8313.0,"Warren, Price and Moran Polyclinic",Hospital,12.0,units,Christ Church,2021-10-29,2018-12-09,12.961388888888887,-59.019999999999996,Needs upgrade,True
814.0,"Burton, Woods and Soto Health Centre",Health Centre,359.0,beds,St. John,2016-04-09,2018-12-07,13.10865,-58.71054,Good,False
8303.0,Thomas LLC Infirmary,Health Centre,232.0,patients,St. John,2021-07-15,2018-10-03,12.72346,-58.8229,Follow-up 2023,True
,Richards-Cox Polyclinic,Clinic,11.0,beds,St. James,2025-07-03,2023-10-27,12.89268,-58.75637,Reinspection due,True
644.0,"Lopez, Harris and Stone Hosp.",Hospital,10.0,beds,St. Peter,2019-01-22,2018-09-17,12.95793,-59.15696,Good,True
644.0,"Lopez, Harris and Stone Hospital",Hospital,10.0,beds,St. Peter,2019-01-22,2018-09-17,12.95793,-59.15696,Good,True
641.0,Parker-Garcia Infirmary,Hospital,58.0,capacity,St. Michael,2016-12-09,2020-10-05,12.72549,-59.13475,Needs upgrade,False
,"St. Conner, Garcia and Vazquez",Health Centre,92.0,beds,St. Peter,2023-10-20,2024-12-01,12.89054,-58.89086,,False
17.0,Gilbert Ltd Polyclinic CHRIST,Community Health Centre,243.0,capacity,Christ Church,2024-11-30,2024-11-29,12.84193,-59.03056,Needs upgrade,True
634.0,"Warren, Trujillo and Carter",Polyclinic,24.0,capacity,St. Lucy,2021-12-20,2024-04-21,12.77421,-58.83003,Good,False
631.0,Carter and Sons Polyclinic,Hospital,383.0,beds,St. Andrew,2024-07-08,2020-05-20,12.78599,-59.13377,,True
341.0,Lewis-Rodriguez Health Centre,Polyclinic,225.0,units,St. Peter,2025-01-29,2021-11-16,13.02929,-59.24272,,True
8294.0,"Williams,-Smith-and-Grant Clinic",Hospital,476.0,patients,St. John,2022-07-23,2020-11-04,13.17642,-59.01274,Needs upgrade,True
4420.0,Owens-Group Clin.,Health Centre,16.0,beds,St. George,2017-04-05,2022-11-11,12.74004,-59.12762,Reinspection due,False
4420.0,Owens-Group Clinic,Health Centre,16.0,beds,St. George,2017-04-05,2022-11-11,12.74004,-59.12762,Reinspection due,False
8286.0,"Hernandez, Campbell and Dunn Polyclinic",Polyclinic,482.0,units,St. Lucy,2023-10-05,2018-08-21,13.07184,-59.27448,Reinspection due,True
8285.0,Gomez-LLC Infirmary,Hospital,390.0,beds,St. James,2017-12-05,2018-04-09,12.94636,-59.2968,Good,False
7605.0,Harris-Young Hospital,Hospital,477.0,units,St. John,2017-04-15,2019-06-15,13.14255,-58.81541,,False
8278.0,Bailey Group Hospital,Hospital,338.0,beds,St. Joseph,2018-12-23,2018-06-09,12.8073,-59.15895,Needs upgrade,True
8275.0,"St Kennedy, Barber and Allen Health Centre",Hospital,42.0,units,St. Lucy,2025-09-28,2022-11-14,13.27149,-59.25702,Follow-up 2023,True
657.0,"Barnett,-Brewer-and-Jones Health Centre",Clinic,191.0,patients,St. George,2017-11-12,2024-07-29,12.76493,-58.76353,Follow-up 2023,False
656.0,Griffith-Robinson Infirmary,Health Centre,10.0,beds,Christ Church,2024-12-16,2024-02-26,12.87981,-58.93689,Follow-up 2023,True
178.0,"Silva, Erickson and Gamble Infirmary St.George",Clinic,10.0,beds,St. George,2022-09-25,2018-07-16,12.99472222222222,-58.848888888888894,Needs upgrade,True
55.0,"St Ryan, Ward and Hernandez",Hospital,10.0,beds,St. Joseph,2021-01-08,2020-05-30,13.07724,-58.82675,,True
,"Patterson, Rodriguez and Manning Clinic",Polyclinic,286.0,cots,Christ Church,2016-05-11,2021-03-15,13.165277777777778,-59.07083333333334,Reinspection due,False
649.0,st. Nash-Black Health Centre,Community Health Centre,22.0,units,St. Michael,2020-05-14,2023-04-28,12.75361111111111,-58.88138888888889,Good,False
,"Aguilar, Benjamin and Rogers Health Centre ST.",Polyclinic,213.0,cots,St. John,2019-07-15,2019-11-24,13.178055555555554,-59.02972222222222,Needs upgrade,False
,Shea and Sons,Clinic,78.0,capacity,St. Andrew,2022-06-02,2021-02-28,13.222222222222223,-59.15861111111111,Follow-up 2023,True
8265.0,"St. Patel, Rodriguez and Pratt",Clinic,240.0,cots,St. Lucy,2023-07-11,2022-07-15,12.81278,-59.03479,Follow-up 2023,True
8259.0,Moses and Sons Polyclinic christ,Hospital,322.0,beds,Christ Church,2025-08-19,2023-03-11,12.98148,-59.07119,Reinspection due,True
8257.0,Jones Inc,Clinic,10.0,beds,Christ Church,2018-04-16,2021-07-09,12.78795,-59.16844,Reinspection due,False
8246.0,"Fisher,-Molina-and-Macdonald",Health Centre,93.0,cots,St. Peter,2020-05-10,2022-04-05,12.89794,-58.92928,,False
672.0,"Mendoza, Camacho and Burke Health Centre ST.",Hospital,412.0,units,St. Andrew,2020-05-18,2021-11-19,13.08048,-59.249,Good,False
670.0,Rodriguez-Joseph Christ,Health Centre,256.0,beds,Christ Church,2018-03-14,2019-09-08,12.9596,-58.93749,,False
,Martin-Thompson Clinic ST.,Polyclinic,458.0,cots,St. James,2025-05-31,2019-06-04,12.75532,-59.17752,,True
,Ruiz PLC,Polyclinic,10.0,beds,St. Lucy,2018-04-24,2024-06-27,12.814166666666667,-58.808611111111105,Follow-up 2023,False
,Guzman-Hernandez Polyclinic,Polyclinic,265.0,cots,St. John,2023-10-31,2019-07-10,12.80585,-59.13301,,True
658.0,Pacheco-Brown Hosp.,Clinic,35.0,capacity,St. George,2020-10-16,2023-05-30,13.21283,-59.03162,Follow-up 2023,False
,"Mccall, Smith and Smith Hosp.",Hospital,169.0,patients,St. James,2018-03-27,2019-04-22,13.20588,-58.70576,Follow-up 2023,False
,"Mccall, Smith and Smith Hospital",Hospital,169.0,patients,St. James,2018-03-27,2019-04-22,13.20588,-58.70576,Follow-up 2023,False
8235.0,st. Page Group Medical Center,Hospital,162.0,patients,St. Lucy,2022-06-28,2025-05-30,13.01987,-59.25939,Follow-up 2023,False
,St Myers-Huang Hosp. NewLine,Hospital,430.0,capacity,St. John,2016-08-30,2024-07-13,12.96012,-59.00612,Reinspection due,False
7836.0,Riley PLC Health Centre,Community Health Centre,14.0,capacity,Christ Church,2017-02-19,2019-04-28,12.95317,-58.88023,Follow-up 2023,False
8229.0,"Salazar, Reynolds and Boyd",Health Centre,383.0,cots,St. Peter,2024-01-27,2022-05-21,12.77409,-58.89774,Good,True
8218.0,Solomon Group,Community Health Centre,313.0,units,St. John,2021-06-19,2019-05-22,12.77009,-59.07483,,True
,Black-Reed,Polyclinic,269.0,beds,St. Peter,2023-03-07,2025-01-27,13.131666666666668,-58.763888888888886,Good,False
7498.0,st. Johnston Inc,Community Health Centre,322.0,beds,St. Michael,2023-04-10,2022-02-15,12.78361111111111,-58.74,Reinspection due,True
8212.0,"Stein,-Nguyen-and-Hernandez",Hospital,336.0,beds,St. John,2024-04-13,2023-05-21,12.78609,-59.04165,Needs upgrade,True
8211.0,St Maxwell PLC Infirmary,Health Centre,394.0,units,St. Andrew,2023-05-28,2024-04-25,13.28707,-59.02105,Follow-up 2023,False
8209.0,"Newman, Bishop and Hutchinson Medical Center",Health Centre,198.0,beds,St. John,2020-12-11,2024-08-23,12.730833333333333,-59.095,Reinspection due,False
,Acosta-Thomas Infirmary St.Andrew,Health Centre,473.0,beds,St. Andrew,2021-09-17,2019-03-01,12.97663,-58.89596,,True
675.0,"Wolf, Villegas and Lynn ST.",Clinic,33.0,beds,St. Lucy,2017-12-04,2020-10-27,13.098055555555556,-58.990833333333335,,False
,Stewart-PLC,Health Centre,452.0,capacity,St. John,2024-03-01,2019-11-22,13.05974,-59.20091,Reinspection due,True
8196.0,Black and Sons Clinic,Health Centre,10.0,beds,Christ Church,2023-06-23,2024-07-29,12.97635,-58.76401,Reinspection due,False
8189.0,Perry-Raymond,Health Centre,10.0,beds,St. Andrew,2019-01-25,2022-04-04,13.06608,-58.75571,,False
,St. Smith-Randolph Health Centre,Health Centre,212.0,patients,St. John,2024-10-12,2023-04-02,13.20279,-59.09024,,True
4724.0,Thomas-Inc Hosp. St.Peter,Community Health Centre,10.0,beds,St. Peter,2017-03-22,2018-09-14,12.807777777777778,-58.96361111111111,Reinspection due,False
307.0,Thornton-Wood Infirmary,Health Centre,328.0,beds,St. Lucy,2022-05-03,2018-05-30,13.22766,-58.9324,Reinspection due,True
8165.0,Arnold-Horne Clinic,Health Centre,414.0,beds,St. Andrew,2024-11-23,2022-12-19,12.83461,-59.28376,Good,True
8164.0,Stewart LLC,Health Centre,324.0,cots,St. Joseph,2024-12-24,2019-03-06,13.22973,-59.09526,Reinspection due,True
8162.0,Yang-Carr Health Centre,Community Health Centre,38.0,beds,Christ Church,2016-04-15,2023-12-24,13.05529,-58.83292,Needs upgrade,False
8161.0,Klein-Alexander Infirmary,Health Centre,43.0,beds,St. Peter,2021-11-17,2021-08-10,12.84088,-58.72087,Follow-up 2023,True
,"Mcguire, Martin and Davis Hosp.",Health Centre,285.0,beds,St. Michael,2016-05-26,2023-08-30,13.018333333333334,-58.98527777777778,,False
8158.0,Osborne-Snyder Health Centre,Health Centre,10.0,beds,St. Andrew,2018-06-23,2024-04-06,13.26037,-58.93603,Follow-up 2023,False
8157.0,St. Gonzalez-Smith Hosp.,Hospital,379.0,patients,St. Andrew,2023-11-27,2019-01-29,13.12108,-59.20356,Reinspection due,True
696.0,"Proctor, Powell and Raymond Hospital ST.",Health Centre,306.0,patients,St. Joseph,2023-07-09,2025-08-02,13.20162,-59.1156,Follow-up 2023,False
694.0,Hawkins-Carter,Polyclinic,94.0,beds,St. Michael,2021-01-21,2020-09-05,12.858333333333333,-59.14222222222222,Follow-up 2023,True
,"Stephens,-Hanson-and-Barnes Clinic",Health Centre,228.0,beds,St. George,2022-08-03,2023-10-25,13.25808,-58.86217,Good,False
8151.0,Dixon-LLC Infirmary,Health Centre,267.0,beds,St. Andrew,2018-09-04,2025-05-11,13.29551,-59.20196,Follow-up 2023,False
8150.0,St. Erickson PLC,Health Centre,10.0,beds,St. James,2023-05-06,2019-01-04,13.0095,-58.92456,Needs upgrade,True
8136.0,Cooper-Osborne Health Centre,Health Centre,210.0,patients,St. Peter,2023-01-24,2023-04-10,12.866944444444444,-59.14805555555556,,False
,"Reyes, Stanley and Taylor Hosp. ST.",Polyclinic,10.0,beds,St. Peter,2018-07-28,2022-01-25,12.990833333333333,-59.22777777777778,Reinspection due,False
,"Reyes, Stanley and Taylor Hospital ST.",Polyclinic,10.0,beds,St. Peter,2018-07-28,2022-01-25,12.990833333333333,-59.22777777777778,Reinspection due,False
8119.0,Bell LLC Hospital,Health Centre,232.0,capacity,St. James,2025-09-18,2019-04-03,13.11833,-58.72057,Reinspection due,True
709.0,Smith Inc,Hospital,399.0,cots,St. George,2019-09-30,2020-12-18,13.00697,-59.03293,Reinspection due,False
,"Williams, Crane and Kennedy Hosp.",Clinic,136.0,units,St. John,2016-12-11,2023-01-07,13.14025,-58.89907,Reinspection due,False
64152.0,St. Benson Group Infirmary,Health Centre,204.0,beds,St. James,2021-06-26,2020-08-19,12.8123,-59.25918,Reinspection due,True
702.0,Bowers Group Hospital,Polyclinic,144.0,beds,St. George,2022-06-10,2025-02-18,13.0621,-58.77733,,False
701.0,"Ferguson, Brooks and Hayes",Health Centre,10.0,beds,Christ Church,2019-04-16,2019-06-01,12.79889,-59.11574,Good,False
,Holland-Reynolds,Hospital,271.0,patients,St. James,2021-11-28,2023-08-19,12.76795,-58.92536,Follow-up 2023,False
16007.0,Edwards-Erickson Health Centre,Clinic,416.0,beds,St. Lucy,2024-06-22,2020-03-09,13.03408,-58.78354,Reinspection due,True
8107.0,Gutierrez-Jackson Infirmary,Health Centre,77.0,beds,St. Michael,2022-11-23,2023-12-25,13.00107,-58.80409,Good,False
,"st. Nixon, Jackson and Graham",Polyclinic,335.0,patients,St. George,2020-11-21,2025-10-13,12.78882,-58.99407,,False
8101.0,st. Gutierrez-Rojas,Health Centre,10.0,beds,St. James,2025-04-06,2018-06-28,13.28315,-59.16245,Follow-up 2023,True
,St. Moss-Fitzgerald,Hospital,447.0,patients,St. James,2022-08-31,2023-11-03,13.04,-58.73694444444445,,False
8093.0,Brock-Taylor Infirmary,Health Centre,484.0,patients,St. Joseph,2019-08-27,2023-10-02,12.71352,-59.10308,Needs upgrade,False
,"st. Stevens, Schroeder and Yoder",Polyclinic,10.0,beds,St. John,2018-09-21,2021-02-16,12.82289,-58.74851,Reinspection due,False
,st. Sanchez and Sons,Clinic,389.0,beds,St. James,2024-06-20,2023-04-14,12.89167,-58.8564,,True
20384.0,Freeman Ltd Infirmary,Polyclinic,102.0,beds,St. James,2021-12-09,2023-08-03,12.71077,-58.82542,Follow-up 2023,False
8084.0,Snyder-Salazar Polyclinic ST.,Health Centre,78.0,capacity,St. James,2024-12-09,2022-10-13,13.07241,-59.21554,Follow-up 2023,True
721.0,"Mitchell, Sawyer and Cardenas Health Centre",Community Health Centre,224.0,cots,St. Lucy,2020-10-03,2024-01-05,13.16938,-59.17006,Good,False
714.0,"Johnson,-James-and-Strickland Medical Center",Polyclinic,220.0,cots,Christ Church,2018-06-07,2022-11-28,12.830833333333333,-58.8875,Follow-up 2023,False
,Anderson Ltd,Polyclinic,281.0,units,St. Joseph,2021-03-12,2024-08-26,13.07185,-59.28442,Reinspection due,False
8069.0,"St. Campbell, Reynolds and Williams Hospital",Community Health Centre,123.0,beds,St. Peter,2020-06-16,2019-09-14,12.83766,-58.85063,Needs upgrade,True
8065.0,Miller-May Infirmary,Health Centre,157.0,patients,St. Peter,2016-07-29,2024-10-29,13.20639,-58.99867,Follow-up 2023,False
8061.0,"Hernandez, Torres and Kennedy Hosp. St. Joseph",Health Centre,10.0,beds,St. Joseph,2020-01-01,2022-09-14,12.871666666666668,-58.998333333333335,Good,False
,St Henry and Sons Medical Center,Polyclinic,106.0,beds,St. Lucy,2021-02-12,2020-05-29,12.99173,-58.7036,,True
8058.0,"Turner, Sanchez and Green Hosp.",Health Centre,205.0,beds,Christ Church,2016-02-15,2024-03-07,13.12729,-59.04072,Needs upgrade,False
8045.0,Torres-Farmer Polyclinic,Hospital,44.0,patients,St. George,2020-05-30,2021-08-18,13.17139,-58.74924,,False
8035.0,St. Green PLC,Community Health Centre,103.0,capacity,St. John,2018-10-24,2025-03-31,12.75053,-59.2994,Reinspection due,False
12.0,St. Phillips LLC Infirmary,Clinic,107.0,cots,St. Michael,2025-01-26,2024-10-26,12.79265,-59.07888,Follow-up 2023,True
825.0,"Johnson, Perez and Aguirre",Polyclinic,105.0,beds,St. Lucy,2016-02-01,2019-04-19,12.942777777777778,-59.003055555555555,Good,False
8030.0,"Kelley, Rice and Young Hosp. St. Joseph",Health Centre,12.0,units,St. Joseph,2025-10-31,2022-11-28,13.2583,-59.03694,Good,True
8030.0,"Kelley, Rice and Young Hospital St. Joseph",Health Centre,12.0,beds,St. Joseph,2025-10-31,2022-11-28,13.2583,-59.03694,Good,True
8029.0,St. Mosley-Ramirez,Health Centre,361.0,cots,St. Joseph,2024-09-16,2018-12-07,13.25957,-59.2917,Reinspection due,True
8024.0,Winters-Inc Health Centre,Health Centre,10.0,beds,St. Joseph,2021-07-08,2021-08-04,12.74693,-59.0681,Follow-up 2023,False
8022.0,Jordan-Moore Medical Center,Health Centre,467.0,beds,St. Peter,2024-04-23,2019-09-16,12.86122,-59.0387,,True
738.0,Perkins-Leach Clinic St. Michael,Hospital,459.0,beds,St. Michael,2020-12-11,2022-08-09,13.195277777777777,-59.113055555555555,Good,False
41124.0,Montgomery-LLC Infirmary,Health Centre,416.0,beds,St. James,2018-06-30,2019-12-30,13.19409,-58.74409,Needs upgrade,False
734.0,"St. Brown, Clark and Perez Infirmary",Clinic,412.0,units,St. John,2025-09-16,2024-07-18,13.08318,-58.95491,Needs upgrade,True
,"Coleman, Wilson and Rowe Hospital",Hospital,331.0,patients,St. Andrew,2019-12-07,2025-10-04,13.09851,-58.9721,Good,False
,Fletcher-Smith,Health Centre,357.0,units,St. James,2017-03-21,2025-11-12,12.95733,-58.92535,Follow-up 2023,False
,St. Williams Inc,Health Centre,477.0,cots,St. James,2018-09-19,2024-07-06,12.77962,-59.00185,,False
727.0,St Brown and Sons Medical Center,Polyclinic,184.0,capacity,St. Lucy,2020-01-21,2023-02-16,12.87663,-58.87561,,False
8017.0,"Gibson,-Nelson-and-Moore Christ",Health Centre,303.0,patients,Christ Church,2017-01-09,2024-01-09,13.08528,-58.83278,Reinspection due,False
,"Smith,-Martin-and-Martin",Community Health Centre,453.0,beds,Christ Church,2021-12-27,2025-11-08,13.16251,-59.25619,,False
,"St Wagner, Gonzalez and Wilson",Health Centre,349.0,beds,St. George,2020-04-21,2022-11-06,12.71852,-59.26962,,False
8011.0,"Ortiz, Lee and Benson Clinic",Polyclinic,253.0,units,St. Lucy,2022-06-14,2024-11-29,13.06349,-59.11778,Needs upgrade,False
8753.0,Riley-Garcia Health Centre ST.,Health Centre,380.0,beds,St. Peter,2025-10-04,2022-05-05,12.9812,-58.70204,,True
76286.0,Rivas-Trujillo Hosp. ST.,Hospital,51.0,units,St. Andrew,2023-08-17,2025-07-23,13.151388888888889,-58.878055555555555,Reinspection due,False
8000.0,Gomez-Thomas Infirmary Christ,Health Centre,43.0,beds,Christ Church,2025-12-14,2018-11-27,12.89341,-58.76905,Reinspection due,True
,St Clarke-and-Sons Medical Center,Community Health Centre,333.0,patients,St. Andrew,2017-02-03,2019-07-14,12.85681,-59.17359,Follow-up 2023,False
755.0,st. Hoffman-Alvarado Polyclinic,Health Centre,29.0,patients,St. Joseph,2019-05-12,2019-08-24,12.89058,-59.0434,,False
,Reyes-Hoffman Medical Center ST.,Polyclinic,155.0,units,St. Peter,2023-12-16,2025-01-25,12.85845,-59.17655,Reinspection due,False
56.0,St. Mcdonald and Sons Clinic,Polyclinic,353.0,cots,St. Peter,2023-07-18,2022-09-09,13.27467,-59.27247,,True
7985.0,Patterson Ltd,Health Centre,69.0,beds,Christ Church,2020-02-15,2019-01-26,13.219444444444445,-58.995555555555555,,True
7984.0,"Leblanc, Lambert and Pollard",Health Centre,10.0,beds,St. Lucy,2019-09-04,2025-02-15,13.04875,-59.08069,Reinspection due,False
7971.0,"Williams,-Gilbert-and-Townsend Medical Center",Community Health Centre,181.0,cots,St. James,2022-07-07,2025-03-29,13.03749,-59.29915,,False
7969.0,"Torres, Perez and Zuniga Infirmary",Hospital,164.0,cots,St. George,2021-05-31,2023-09-12,13.17305,-58.98613,Follow-up 2023,False
,Davis LLC Health Centre,Hospital,152.0,beds,St. James,2022-02-28,2022-08-01,12.74262,-58.95492,Good,False
7966.0,Church PLC Hosp.,Hospital,64.0,patients,St. Joseph,2018-04-19,2024-04-09,12.89015,-59.15908,Needs upgrade,False
,Jenkins-Wilson Hosp. christ,Hospital,338.0,capacity,Christ Church,2024-05-26,2021-06-06,12.85233,-59.02682,Good,True
,Jenkins-Wilson Hospital christ,Hospital,338.0,capacity,Christ Church,2024-05-26,2021-06-06,12.85233,-59.02682,Good,True
7943.0,Delacruz-Group,Polyclinic,261.0,capacity,St. James,2017-09-30,2025-11-20,13.06196,-58.98627,Reinspection due,False
7942.0,"Ortega, Hawkins and Barnett Health Centre",Health Centre,187.0,patients,St. Andrew,2019-08-31,2023-10-02,13.03474,-59.12297,Reinspection due,False
7939.0,"Aguirre, Hunter and Glenn Infirmary",Health Centre,298.0,cots,Christ Church,2023-03-02,2024-12-02,12.868055555555555,-59.08777777777778,Reinspection due,False
,"Figueroa,-Dean-and-Hunter",Hospital,10.0,beds,St. John,2022-08-10,2023-04-09,12.83172,-59.07064,Follow-up 2023,False
,Williams and Sons,Polyclinic,454.0,cots,St. Lucy,2023-07-21,2022-03-18,12.823055555555555,-58.90888888888889,Needs upgrade,True
,"Morgan, Smith and Anderson Hosp.",Hospital,21.0,units,St. Peter,2021-05-20,2023-07-22,13.06044,-58.85762,Follow-up 2023,False
,"Morgan, Smith and Anderson Hospital",Hospital,21.0,units,St. Peter,2021-05-20,2023-07-22,13.06044,-58.85762,Follow-up 2023,False
761.0,Powell LLC Hosp. St.James,Clinic,286.0,cots,St. James,2022-07-28,2019-04-08,12.90486,-59.01703,Follow-up 2023,True
761.0,Powell LLC Hospital St.James,Clinic,286.0,cots,St. James,2022-07-28,2019-04-08,12.90486,-59.01703,Follow-up 2023,True
,"Cole, Valencia and Stephens Hosp. ST.",Polyclinic,445.0,beds,St. Andrew,2022-12-04,2024-04-06,13.03941,-59.05143,Good,False
757.0,"White, Smith and Brown Health Centre",Health Centre,268.0,units,St. John,2022-07-13,2025-02-13,13.10959,-58.92628,Follow-up 2023,False
548.0,Salazar-Davidson Medical Center,Health Centre,484.0,beds,St. Michael,2019-01-21,2021-09-05,12.81863,-59.12525,Needs upgrade,False
7930.0,Wood-Grant,Health Centre,339.0,beds,St. Joseph,2016-06-15,2022-08-27,13.07717,-59.13929,Reinspection due,False
,Nelson-Singleton St.John,Polyclinic,446.0,beds,St. John,2022-11-22,2022-09-23,13.25521,-58.77035,Reinspection due,True
297.0,St. Roberts PLC Health Centre,Community Health Centre,267.0,beds,St. Peter,2020-08-11,2018-06-17,13.20789,-58.89193,Needs upgrade,True
